{"type":"FeatureCollection","features":[{"geometry": {"type": "Point", "coordinates": [-78.74392299999994, 41.12173400000006]}, "type": "Feature", "id": 0, "properties": {"CITY": "DUBOIS", "OBJECTID": 1, "GEOCODING_": "01", "LONGITUDE": -78.743923, "COUNTY": "CLEARFIELD", "FACILITY_N": "ANGELS OF CARE OF PA", "STREET": "375 BEAVER DRIVE, SUITE 300", "FACILITY_I": "763005", "LATITUDE": 41.121734, "TELEPHONE_": "(814)375-1040", "ZIP_CODE": 15801.0}},{"geometry": {"type": "Point", "coordinates": [-75.95870199999996, 40.34709000000004]}, "type": "Feature", "id": 1, "properties": {"CITY": "WYOMISSING", "OBJECTID": 2, "GEOCODING_": "01", "LONGITUDE": -75.958702, "COUNTY": "BERKS", "FACILITY_N": "ANGELS OF CARE OF PA", "STREET": "845 PARK ROAD SUITE 302", "FACILITY_I": "05540501", "LATITUDE": 40.34709, "TELEPHONE_": "(610)376-1160", "ZIP_CODE": 19610.0}},{"geometry": {"type": "Point", "coordinates": [-75.12569899999994, 40.09493000000003]}, "type": "Feature", "id": 2, "properties": {"CITY": "JENKINTOWN", "OBJECTID": 3, "GEOCODING_": "01", "LONGITUDE": -75.125699, "COUNTY": "MONTGOMERY", "FACILITY_N": "ANGELS ON CALL HEALTH", "STREET": "261 OLD YORK ROAD, SUITE 604A", "FACILITY_I": "762205", "LATITUDE": 40.09493, "TELEPHONE_": "(215)886-6885", "ZIP_CODE": 19046.0}},{"geometry": {"type": "Point", "coordinates": [-75.07087299999995, 40.199024000000065]}, "type": "Feature", "id": 3, "properties": {"CITY": "WARMINSTER", "OBJECTID": 4, "GEOCODING_": "01", "LONGITUDE": -75.070873, "COUNTY": "BUCKS", "FACILITY_N": "ANN'S CHOICE VISITING NURSE SERVICES", "STREET": "10000 ANN'S CHOICE WAY", "FACILITY_I": "03070501", "LATITUDE": 40.199024, "TELEPHONE_": "(215)443-3113", "ZIP_CODE": 18974.0}},{"geometry": {"type": "Point", "coordinates": [-80.04255699999999, 40.42486100000008]}, "type": "Feature", "id": 4, "properties": {"CITY": "PITTSBURGH", "OBJECTID": 5, "GEOCODING_": "01", "LONGITUDE": -80.042557, "COUNTY": "ALLEGHENY", "FACILITY_N": "ANOVA HOME HEALTHCARE SERVICES", "STREET": "875 GREENTREE ROAD, TWO PARKWAY CENTER, SUITE 120", "FACILITY_I": "02390501", "LATITUDE": 40.424861, "TELEPHONE_": "(412)681-1044", "ZIP_CODE": 15220.0}},{"geometry": {"type": "Point", "coordinates": [-75.10515299999997, 40.17462400000005]}, "type": "Feature", "id": 5, "properties": {"CITY": "HATBORO", "OBJECTID": 6, "GEOCODING_": "01", "LONGITUDE": -75.105153, "COUNTY": "BUCKS", "FACILITY_N": "ANS INFUSION INC.", "STREET": "41 BYBERRY ROAD", "FACILITY_I": "05860501", "LATITUDE": 40.174624, "TELEPHONE_": "(215)394-8058", "ZIP_CODE": 19040.0}},{"geometry": {"type": "Point", "coordinates": [-76.83110799999997, 40.29233800000003]}, "type": "Feature", "id": 6, "properties": {"CITY": "HARRISBURG", "OBJECTID": 7, "GEOCODING_": "01", "LONGITUDE": -76.831108, "COUNTY": "DAUPHIN", "FACILITY_N": "APEX HEALTHCARE SERVICES, LLC", "STREET": "3835 WALNUT STREET", "FACILITY_I": "06680501", "LATITUDE": 40.292338, "TELEPHONE_": "(717)412-4154", "ZIP_CODE": 17109.0}},{"geometry": {"type": "Point", "coordinates": [-75.30159899999995, 39.91788200000008]}, "type": "Feature", "id": 7, "properties": {"CITY": "SECANE", "OBJECTID": 8, "GEOCODING_": "01", "LONGITUDE": -75.301599, "COUNTY": "DELAWARE", "FACILITY_N": "APEX HUMAN SERVICES", "STREET": "925 PROVIDENCE RD SUITE 17", "FACILITY_I": "06790501", "LATITUDE": 39.917882, "TELEPHONE_": "(484)469-3211", "ZIP_CODE": 19018.0}},{"geometry": {"type": "Point", "coordinates": [-75.04531599999996, 40.16247800000008]}, "type": "Feature", "id": 8, "properties": {"CITY": "SOUTHAMPTON", "OBJECTID": 9, "GEOCODING_": "01", "LONGITUDE": -75.045316, "COUNTY": "BUCKS", "FACILITY_N": "ARGO HOME HEALTH CARE INC.", "STREET": "950 INDUSTRIAL BLVD", "FACILITY_I": "06850501", "LATITUDE": 40.162478, "TELEPHONE_": "(215)396-8778", "ZIP_CODE": 18966.0}},{"geometry": {"type": "Point", "coordinates": [-76.29657499999996, 40.07629500000007]}, "type": "Feature", "id": 9, "properties": {"CITY": "LANCASTER", "OBJECTID": 10, "GEOCODING_": "01", "LONGITUDE": -76.296575, "COUNTY": "LANCASTER", "FACILITY_N": "ARK OF LIFE HOME HEALTH, LLC", "STREET": "1834 OREGON PIKE, SUITE 6", "FACILITY_I": "05700501", "LATITUDE": 40.076295, "TELEPHONE_": "(717)682-3059", "ZIP_CODE": 17601.0}},{"geometry": {"type": "Point", "coordinates": [-75.52107499999994, 40.58021400000007]}, "type": "Feature", "id": 10, "properties": {"CITY": "ALLENTOWN", "OBJECTID": 11, "GEOCODING_": "01", "LONGITUDE": -75.521075, "COUNTY": "LEHIGH", "FACILITY_N": "AROUND-THE-CLOCK NURSING, INC.", "STREET": "3136 HAMILTON BLVD., SUITE 104", "FACILITY_I": "77480501", "LATITUDE": 40.580214, "TELEPHONE_": "(610)433-9980", "ZIP_CODE": 18103.0}},{"geometry": {"type": "Point", "coordinates": [-75.23024699999996, 40.002058000000034]}, "type": "Feature", "id": 11, "properties": {"CITY": "BALA CYNWYD", "OBJECTID": 12, "GEOCODING_": "01", "LONGITUDE": -75.230247, "COUNTY": "MONTGOMERY", "FACILITY_N": "ART OF AGING HOME HEALTH CARE LLC", "STREET": "29 BALA AVENUE SUITE 211", "FACILITY_I": "07960501", "LATITUDE": 40.002058, "TELEPHONE_": "(484)278-1670", "ZIP_CODE": 19004.0}},{"geometry": {"type": "Point", "coordinates": [-75.26601099999993, 39.95221200000003]}, "type": "Feature", "id": 12, "properties": {"CITY": "UPPER DARBY", "OBJECTID": 13, "GEOCODING_": "01", "LONGITUDE": -75.266011, "COUNTY": "DELAWARE", "FACILITY_N": "ASAP HEALTHCARE SERVICES, INC.", "STREET": "118 NORMANDY ROAD", "FACILITY_I": "07800501", "LATITUDE": 39.952212, "TELEPHONE_": "(215)668-1408", "ZIP_CODE": 19082.0}},{"geometry": {"type": "Point", "coordinates": [-75.89972599999999, 41.26660500000003]}, "type": "Feature", "id": 13, "properties": {"CITY": "KINGSTON", "OBJECTID": 14, "GEOCODING_": "01", "LONGITUDE": -75.899726, "COUNTY": "LUZERNE", "FACILITY_N": "ASSOCIATED FAMILY HOME CARE, INC.", "STREET": "256 SCHUYLER AVENUE", "FACILITY_I": "750205", "LATITUDE": 41.266605, "TELEPHONE_": "(570)283-5917", "ZIP_CODE": 18704.0}},{"geometry": {"type": "Point", "coordinates": [-75.62179999999995, 40.68973300000005]}, "type": "Feature", "id": 14, "properties": {"CITY": "SCHNECKSVILLE", "OBJECTID": 15, "GEOCODING_": "01", "LONGITUDE": -75.6218, "COUNTY": "LEHIGH", "FACILITY_N": "AT HOME HEALTH SERVICES LLC", "STREET": "4315 WASHINGTON STREET", "FACILITY_I": "02760501", "LATITUDE": 40.689733, "TELEPHONE_": "(610)820-8301", "ZIP_CODE": 18078.0}},{"geometry": {"type": "Point", "coordinates": [-75.21735499999994, 40.00804400000004]}, "type": "Feature", "id": 15, "properties": {"CITY": "BALA CYNWYD", "OBJECTID": 16, "GEOCODING_": "01", "LONGITUDE": -75.217355, "COUNTY": "MONTGOMERY", "FACILITY_N": "AT HOME HEALTH, INC.", "STREET": "TWO BALA PLAZA SUITE 300", "FACILITY_I": "770505", "LATITUDE": 40.008044, "TELEPHONE_": "(215)940-2980", "ZIP_CODE": 19004.0}},{"geometry": {"type": "Point", "coordinates": [-80.14571599999994, 40.79475700000006]}, "type": "Feature", "id": 16, "properties": {"CITY": "ZELIENOPLE", "OBJECTID": 17, "GEOCODING_": "01", "LONGITUDE": -80.145716, "COUNTY": "BUTLER", "FACILITY_N": "AT HOME NURSING AND THERAPY SERVICES LLC", "STREET": "642 WEST NEW CASTLE STREET", "FACILITY_I": "04420501", "LATITUDE": 40.794757, "TELEPHONE_": "(724)452-5700", "ZIP_CODE": 16063.0}},{"geometry": {"type": "Point", "coordinates": [-75.93768299999994, 40.408758000000034]}, "type": "Feature", "id": 17, "properties": {"CITY": "READING", "OBJECTID": 18, "GEOCODING_": "01", "LONGITUDE": -75.937683, "COUNTY": "BERKS", "FACILITY_N": "ACCENTCARE HOME HEALTH OF SOUTHEASTERN PENNSYLVANIA", "STREET": "4641 POTTSVILLE PIKE, SUITE 106", "FACILITY_I": "03800501", "LATITUDE": 40.408758, "TELEPHONE_": "(267)552-6650", "ZIP_CODE": 19605.0}},{"geometry": {"type": "Point", "coordinates": [-75.35678199999995, 39.96226400000006]}, "type": "Feature", "id": 18, "properties": {"CITY": "BROOMALL", "OBJECTID": 19, "GEOCODING_": "01", "LONGITUDE": -75.356782, "COUNTY": "DELAWARE", "FACILITY_N": "ACCUCARE HOME NURSING, INC.", "STREET": "1999 SPROUL ROAD, SUITE 1", "FACILITY_I": "762305", "LATITUDE": 39.962264, "TELEPHONE_": "(610)353-7360", "ZIP_CODE": 19008.0}},{"geometry": {"type": "Point", "coordinates": [-76.52134799999999, 40.32824800000003]}, "type": "Feature", "id": 19, "properties": {"CITY": "ANNVILLE", "OBJECTID": 20, "GEOCODING_": "01", "LONGITUDE": -76.521348, "COUNTY": "LEBANON", "FACILITY_N": "ACE HEALTH & HOSPICE, LLC", "STREET": "342 W MAIN STREET", "FACILITY_I": "08560501", "LATITUDE": 40.328248, "TELEPHONE_": "(413)231-8363", "ZIP_CODE": 17003.0}},{"geometry": {"type": "Point", "coordinates": [-75.12749099999996, 40.076925000000074]}, "type": "Feature", "id": 20, "properties": {"CITY": "ELKINS PARK", "OBJECTID": 21, "GEOCODING_": "01", "LONGITUDE": -75.127491, "COUNTY": "MONTGOMERY", "FACILITY_N": "ACHILLES HOME HEALTH", "STREET": "8118 OLD YORK ROAD SUITE D", "FACILITY_I": "04510501", "LATITUDE": 40.076925, "TELEPHONE_": "(215)635-1800", "ZIP_CODE": 19027.0}},{"geometry": {"type": "Point", "coordinates": [-75.16158499999995, 39.93655600000005]}, "type": "Feature", "id": 21, "properties": {"CITY": "PHILADELPHIA", "OBJECTID": 22, "GEOCODING_": "01", "LONGITUDE": -75.161585, "COUNTY": "PHILADELPHIA", "FACILITY_N": "ACT HOME HEALTH SERVICES, INC.", "STREET": "1121 SOUTH 11TH STREET", "FACILITY_I": "02530501", "LATITUDE": 39.936556, "TELEPHONE_": "(215)389-1800", "ZIP_CODE": 19147.0}},{"geometry": {"type": "Point", "coordinates": [-75.13929499999995, 39.99606700000004]}, "type": "Feature", "id": 22, "properties": {"CITY": "PHILADELPHIA", "OBJECTID": 23, "GEOCODING_": "01", "LONGITUDE": -75.139295, "COUNTY": "PHILADELPHIA", "FACILITY_N": "ACTIVE LIFE, INC.", "STREET": "2939 N. 5TH STREET, UNIT B", "FACILITY_I": "06860501", "LATITUDE": 39.996067, "TELEPHONE_": "(215)550-5500", "ZIP_CODE": 19133.0}},{"geometry": {"type": "Point", "coordinates": [-75.30154399999998, 40.203647000000046]}, "type": "Feature", "id": 23, "properties": {"CITY": "LANSDALE", "OBJECTID": 24, "GEOCODING_": "01", "LONGITUDE": -75.301544, "COUNTY": "MONTGOMERY", "FACILITY_N": "ACTS HOME HEALTH AGENCY", "STREET": "1936 WEST POINT PIKE", "FACILITY_I": "007805", "LATITUDE": 40.203647, "TELEPHONE_": "(215)542-9517", "ZIP_CODE": 19446.0}},{"geometry": {"type": "Point", "coordinates": [-75.26743299999998, 39.92549200000008]}, "type": "Feature", "id": 24, "properties": {"CITY": "DARBY", "OBJECTID": 25, "GEOCODING_": "01", "LONGITUDE": -75.267433, "COUNTY": "DELAWARE", "FACILITY_N": "ADVANCED HEALTH AND HUMAN SERVICES", "STREET": "2 CONCORD ROAD", "FACILITY_I": "08190501", "LATITUDE": 39.925492, "TELEPHONE_": "(610)803-8128", "ZIP_CODE": 19023.0}},{"geometry": {"type": "Point", "coordinates": [-80.10316799999998, 40.45290600000004]}, "type": "Feature", "id": 25, "properties": {"CITY": "PITTSBURGH", "OBJECTID": 26, "GEOCODING_": "01", "LONGITUDE": -80.103168, "COUNTY": "ALLEGHENY", "FACILITY_N": "ADVANCED HOME HEALTH", "STREET": "290 BILMAR DRIVE, SUITE 301", "FACILITY_I": "77590501", "LATITUDE": 40.452906, "TELEPHONE_": "(412)344-4100", "ZIP_CODE": 15205.0}},{"geometry": {"type": "Point", "coordinates": [-75.64326199999994, 41.41815100000008]}, "type": "Feature", "id": 26, "properties": {"CITY": "DUNMORE", "OBJECTID": 27, "GEOCODING_": "01", "LONGITUDE": -75.643262, "COUNTY": "LACKAWANNA", "FACILITY_N": "ADVANCED HOME HEALTH CARE SPECIALISTS, INC.", "STREET": "207 WEST GROVE STREET", "FACILITY_I": "77840501", "LATITUDE": 41.418151, "TELEPHONE_": "(570)343-4100", "ZIP_CODE": 18509.0}},{"geometry": {"type": "Point", "coordinates": [-76.18483799999996, 40.64330200000006]}, "type": "Feature", "id": 27, "properties": {"CITY": "POTTSVILLE", "OBJECTID": 28, "GEOCODING_": "01", "LONGITUDE": -76.184838, "COUNTY": "SCHUYLKILL", "FACILITY_N": "ADVANTAGE HOME HEALTH AND HOSPICE", "STREET": "1502 ROUTE 61 HIGHWAY SOUTH", "FACILITY_I": "05380501", "LATITUDE": 40.643302, "TELEPHONE_": "(570)668-6300", "ZIP_CODE": 17901.0}},{"geometry": {"type": "Point", "coordinates": [-76.97907299999997, 40.189091000000076]}, "type": "Feature", "id": 28, "properties": {"CITY": "MECHANICSBURG", "OBJECTID": 29, "GEOCODING_": "01", "LONGITUDE": -76.979073, "COUNTY": "CUMBERLAND", "FACILITY_N": "ADVANTAGE HOME HEALTH AND HOSPICE", "STREET": "100 MT ALLEN DRIVE ROOM 3068", "FACILITY_I": "712905", "LATITUDE": 40.189091, "TELEPHONE_": "(717)590-8878", "ZIP_CODE": 17055.0}},{"geometry": {"type": "Point", "coordinates": [-77.84167999999994, 40.784646000000066]}, "type": "Feature", "id": 29, "properties": {"CITY": "STATE COLLEGE", "OBJECTID": 30, "GEOCODING_": "01", "LONGITUDE": -77.84168, "COUNTY": "CENTRE", "FACILITY_N": "ADVANTAGE HOME HEALTH SERVICES, CENTRAL", "STREET": "1368 SOUTH ATHERTON STREET", "FACILITY_I": "756405", "LATITUDE": 40.784646, "TELEPHONE_": "(814)235-1011", "ZIP_CODE": 16801.0}},{"geometry": {"type": "Point", "coordinates": [-79.97396999999995, 40.347484000000065]}, "type": "Feature", "id": 30, "properties": {"CITY": "PITTSBURGH", "OBJECTID": 31, "GEOCODING_": "01", "LONGITUDE": -79.97397, "COUNTY": "ALLEGHENY", "FACILITY_N": "ADVANTAGE HOME HEALTH SERVICES, LLC", "STREET": "5035 CLAIRTON BLVD", "FACILITY_I": "02710501", "LATITUDE": 40.347484, "TELEPHONE_": "(412)440-0142", "ZIP_CODE": 15236.0}},{"geometry": {"type": "Point", "coordinates": [-78.39782699999995, 40.521475000000066]}, "type": "Feature", "id": 31, "properties": {"CITY": "ALTOONA", "OBJECTID": 32, "GEOCODING_": "01", "LONGITUDE": -78.397827, "COUNTY": "BLAIR", "FACILITY_N": "ADVANTAGE HOME HEALTH SERVICES, LLC", "STREET": "615 HOWARD AVENUE SUITE 213", "FACILITY_I": "04000501", "LATITUDE": 40.521475, "TELEPHONE_": "(814)943-0222", "ZIP_CODE": 16601.0}},{"geometry": {"type": "Point", "coordinates": [-75.26256999999998, 39.925824000000034]}, "type": "Feature", "id": 32, "properties": {"CITY": "DARBY", "OBJECTID": 33, "GEOCODING_": "01", "LONGITUDE": -75.26257, "COUNTY": "DELAWARE", "FACILITY_N": "ADVOCATE HOME HEALTH CARE INC", "STREET": "1311 PARK LANE", "FACILITY_I": "06370501", "LATITUDE": 39.925824, "TELEPHONE_": "(610)461-1574", "ZIP_CODE": 19023.0}},{"geometry": {"type": "Point", "coordinates": [-75.15416999999997, 39.955674000000045]}, "type": "Feature", "id": 33, "properties": {"CITY": "PHILADELPHIA", "OBJECTID": 34, "GEOCODING_": "01", "LONGITUDE": -75.15417, "COUNTY": "PHILADELPHIA", "FACILITY_N": "ADWA HOME CARE INC.", "STREET": "213 N 9TH STREET 1ST FLOOR", "FACILITY_I": "06530501", "LATITUDE": 39.955674, "TELEPHONE_": "(215)592-8848", "ZIP_CODE": 19107.0}},{"geometry": {"type": "Point", "coordinates": [-75.06998899999996, 40.02613700000006]}, "type": "Feature", "id": 34, "properties": {"CITY": "PHILADELPHIA", "OBJECTID": 35, "GEOCODING_": "01", "LONGITUDE": -75.069989, "COUNTY": "PHILADELPHIA", "FACILITY_N": "1 HEART HOME HEALTH CARE LLC", "STREET": "6611 FRANKFORD AVENUE", "FACILITY_I": "04390501", "LATITUDE": 40.026137, "TELEPHONE_": "(215)904-6653", "ZIP_CODE": 19149.0}},{"geometry": {"type": "Point", "coordinates": [-75.56561999999997, 40.59036500000008]}, "type": "Feature", "id": 35, "properties": {"CITY": "ALLENTOWN", "OBJECTID": 36, "GEOCODING_": "01", "LONGITUDE": -75.56562, "COUNTY": "LEHIGH", "FACILITY_N": "1ST CARE HOME HEALTH SERVICES OF PENNSYLVANIA", "STREET": "5000 TILGHMAN STREET SUITE 200", "FACILITY_I": "04950501", "LATITUDE": 40.590365, "TELEPHONE_": "(610)266-3999", "ZIP_CODE": 18104.0}},{"geometry": {"type": "Point", "coordinates": [-75.21787899999998, 40.00543600000003]}, "type": "Feature", "id": 36, "properties": {"CITY": "BALA CYNWYD", "OBJECTID": 37, "GEOCODING_": "01", "LONGITUDE": -75.217879, "COUNTY": "MONTGOMERY", "FACILITY_N": "365 HEALTH SERVICES, LLC", "STREET": "301 CITY AVENUE SUITE 300", "FACILITY_I": "06830501", "LATITUDE": 40.005436, "TELEPHONE_": "(215)309-5654", "ZIP_CODE": 19004.0}},{"geometry": {"type": "Point", "coordinates": [-79.75368799999995, 40.60275500000006]}, "type": "Feature", "id": 37, "properties": {"CITY": "TARENTUM", "OBJECTID": 38, "GEOCODING_": "01", "LONGITUDE": -79.753688, "COUNTY": "ALLEGHENY", "FACILITY_N": "365 HOME CARE, INC.", "STREET": "316 E 6TH AVENUE", "FACILITY_I": "07430501", "LATITUDE": 40.602755, "TELEPHONE_": "(412)533-5207", "ZIP_CODE": 15084.0}},{"geometry": {"type": "Point", "coordinates": [-75.67842799999994, 41.41394200000008]}, "type": "Feature", "id": 38, "properties": {"CITY": "SCRANTON", "OBJECTID": 39, "GEOCODING_": "01", "LONGITUDE": -75.678428, "COUNTY": "LACKAWANNA", "FACILITY_N": "A BLESSING HAND HOME HEALTH, LLC", "STREET": "220 N MAIN AVENUE", "FACILITY_I": "07720501", "LATITUDE": 41.413942, "TELEPHONE_": "(570)904-4142", "ZIP_CODE": 18504.0}},{"geometry": {"type": "Point", "coordinates": [-76.79216899999994, 40.26159000000007]}, "type": "Feature", "id": 39, "properties": {"CITY": "HARRISBURG", "OBJECTID": 40, "GEOCODING_": "01", "LONGITUDE": -76.792169, "COUNTY": "DAUPHIN", "FACILITY_N": "A CARING HAND HOME HEALTH CARE, LLC", "STREET": "5600 DERRY STREET", "FACILITY_I": "07330501", "LATITUDE": 40.26159, "TELEPHONE_": "(717)775-4051", "ZIP_CODE": 17111.0}},{"geometry": {"type": "Point", "coordinates": [-80.32762999999994, 40.68526900000006]}, "type": "Feature", "id": 40, "properties": {"CITY": "VANPORT", "OBJECTID": 41, "GEOCODING_": "01", "LONGITUDE": -80.32763, "COUNTY": "BEAVER", "FACILITY_N": "A HOLY FAMILY HOME HEALTH", "STREET": "387 STATE STREET", "FACILITY_I": "04130501", "LATITUDE": 40.685269, "TELEPHONE_": "(724)775-1600", "ZIP_CODE": 15009.0}},{"geometry": {"type": "Point", "coordinates": [-80.41544199999998, 40.64546800000005]}, "type": "Feature", "id": 41, "properties": {"CITY": "INDUSTRY", "OBJECTID": 42, "GEOCODING_": "01", "LONGITUDE": -80.415442, "COUNTY": "BEAVER", "FACILITY_N": "A SAMUEL'S CHRISTIAN HOME CARE", "STREET": "309 HURON STREET", "FACILITY_I": "02140501", "LATITUDE": 40.645468, "TELEPHONE_": "(724)643-1000", "ZIP_CODE": 15052.0}},{"geometry": {"type": "Point", "coordinates": [-75.32888439899995, 39.90967544500006]}, "type": "Feature", "id": 42, "properties": {"CITY": "MORTON", "OBJECTID": 43, "GEOCODING_": "01", "LONGITUDE": -75.3288843991, "COUNTY": "DELAWARE", "FACILITY_N": "A&E HOME CARE LLC", "STREET": "109 WOODLANE AVENUE APT B", "FACILITY_I": "04200501", "LATITUDE": 39.9096754453, "TELEPHONE_": "(570)401-2681", "ZIP_CODE": 19070.0}},{"geometry": {"type": "Point", "coordinates": [-79.81225399999994, 40.484087000000045]}, "type": "Feature", "id": 43, "properties": {"CITY": "PITTSBURGH", "OBJECTID": 44, "GEOCODING_": "01", "LONGITUDE": -79.812254, "COUNTY": "ALLEGHENY", "FACILITY_N": "A&M HEALTHCARE AGENCY LLC", "STREET": "6391 SALTSBURG ROAD", "FACILITY_I": "05600501", "LATITUDE": 40.484087, "TELEPHONE_": "(412)552-9878", "ZIP_CODE": 15235.0}},{"geometry": {"type": "Point", "coordinates": [-75.00426999999996, 40.14663600000006]}, "type": "Feature", "id": 44, "properties": {"CITY": "FEASTERVILLE", "OBJECTID": 45, "GEOCODING_": "01", "LONGITUDE": -75.00427, "COUNTY": "BUCKS", "FACILITY_N": "A-TEAM HOME CARE, INC.", "STREET": "2 PARK LANE UNIT 106", "FACILITY_I": "06450501", "LATITUDE": 40.146636, "TELEPHONE_": "(215)490-9994", "ZIP_CODE": 19053.0}},{"geometry": {"type": "Point", "coordinates": [-79.68754899999999, 39.914202000000046]}, "type": "Feature", "id": 45, "properties": {"CITY": "UNIONTOWN", "OBJECTID": 46, "GEOCODING_": "01", "LONGITUDE": -79.687549, "COUNTY": "FAYETTE", "FACILITY_N": "ABBY HEALTH CARE, INC.", "STREET": "287 EDISON STREET", "FACILITY_I": "725505", "LATITUDE": 39.914202, "TELEPHONE_": "(724)439-2229", "ZIP_CODE": 15401.0}},{"geometry": {"type": "Point", "coordinates": [-75.59988499999997, 41.45119800000003]}, "type": "Feature", "id": 46, "properties": {"CITY": "THROOP", "OBJECTID": 47, "GEOCODING_": "01", "LONGITUDE": -75.599885, "COUNTY": "LACKAWANNA", "FACILITY_N": "ABLE HOME HEALTH, LLC", "STREET": "301 SCHOOL SIDE DRIVE", "FACILITY_I": "07710501", "LATITUDE": 41.451198, "TELEPHONE_": "(570)499-0228", "ZIP_CODE": 18512.0}},{"geometry": {"type": "Point", "coordinates": [-74.80004199999996, 41.31970300000006]}, "type": "Feature", "id": 47, "properties": {"CITY": "MILFORD", "OBJECTID": 48, "GEOCODING_": "01", "LONGITUDE": -74.800042, "COUNTY": "PIKE", "FACILITY_N": "ABOVE THE REST HOME CARE, LLC", "STREET": "302 E HARFORD STREET", "FACILITY_I": "07510501", "LATITUDE": 41.319703, "TELEPHONE_": "(570)409-4888", "ZIP_CODE": 18337.0}},{"geometry": {"type": "Point", "coordinates": [-75.12693199999995, 40.08891700000004]}, "type": "Feature", "id": 48, "properties": {"CITY": "JENKINTOWN", "OBJECTID": 49, "GEOCODING_": "01", "LONGITUDE": -75.126932, "COUNTY": "MONTGOMERY", "FACILITY_N": "ABRAMSON HOME CARE", "STREET": "261 OLD YORK ROAD SUITE 630", "FACILITY_I": "771205", "LATITUDE": 40.088917, "TELEPHONE_": "(215)371-3490", "ZIP_CODE": 19046.0}},{"geometry": {"type": "Point", "coordinates": [-75.30095299999994, 39.97281900000007]}, "type": "Feature", "id": 49, "properties": {"CITY": "HAVERTOWN", "OBJECTID": 50, "GEOCODING_": "01", "LONGITUDE": -75.300953, "COUNTY": "DELAWARE", "FACILITY_N": "ABUNDANT CARE, LLC", "STREET": "510 DARBY ROAD, SUITE 1A", "FACILITY_I": "07970501", "LATITUDE": 39.972819, "TELEPHONE_": "(610)572-2226", "ZIP_CODE": 19083.0}},{"geometry": {"type": "Point", "coordinates": [-74.90071599999999, 40.10728500000005]}, "type": "Feature", "id": 50, "properties": {"CITY": "BRISTOL", "OBJECTID": 51, "GEOCODING_": "01", "LONGITUDE": -74.900716, "COUNTY": "BUCKS", "FACILITY_N": "ACCENTCARE HEALTH OF PENNSYLVANIA", "STREET": "1501 GRUNDY LANE SUITE 100", "FACILITY_I": "747205", "LATITUDE": 40.107285, "TELEPHONE_": "(215)826-0900", "ZIP_CODE": 19007.0}},{"geometry": {"type": "Point", "coordinates": [-76.60076799999996, 40.137946000000056]}, "type": "Feature", "id": 51, "properties": {"CITY": "ELIZABETHTOWN", "OBJECTID": 52, "GEOCODING_": "01", "LONGITUDE": -76.600768, "COUNTY": "LANCASTER", "FACILITY_N": "ACCENTCARE HOME HEALTH OF CENTRAL PENNSYLVANIA", "STREET": "278 MAYTOWN ROAD SUITE 400", "FACILITY_I": "02960501", "LATITUDE": 40.137946, "TELEPHONE_": "(717)367-2571", "ZIP_CODE": 17022.0}},{"geometry": {"type": "Point", "coordinates": [-75.27219799999995, 39.93778100000003]}, "type": "Feature", "id": 52, "properties": {"CITY": "LANSDOWNE", "OBJECTID": 53, "GEOCODING_": "01", "LONGITUDE": -75.272198, "COUNTY": "DELAWARE", "FACILITY_N": "AFFECTIONATE HOME HEALTH CARE SERVICES LLC", "STREET": "14 SOUTH LANSDOWNE AVENUE", "FACILITY_I": "05610501", "LATITUDE": 39.937781, "TELEPHONE_": "(484)461-4369", "ZIP_CODE": 19050.0}},{"geometry": {"type": "Point", "coordinates": [-75.12667999999996, 40.09786800000006]}, "type": "Feature", "id": 53, "properties": {"CITY": "JENKINTOWN", "OBJECTID": 54, "GEOCODING_": "01", "LONGITUDE": -75.12668, "COUNTY": "MONTGOMERY", "FACILITY_N": "AFFINITY HEALTHCARE SOLUTIONS SKILLED CARE LLC", "STREET": "469 JOHNSON STREET, SUITE 100", "FACILITY_I": "08270501", "LATITUDE": 40.097868, "TELEPHONE_": "(215)758-2748", "ZIP_CODE": 19046.0}},{"geometry": {"type": "Point", "coordinates": [-74.89317299999993, 40.10292100000004]}, "type": "Feature", "id": 54, "properties": {"CITY": "CROYDON", "OBJECTID": 55, "GEOCODING_": "01", "LONGITUDE": -74.893173, "COUNTY": "BUCKS", "FACILITY_N": "AFFORDABLE HEALTHCARE SERVICES AND HOMECARE, LLC", "STREET": "1016 FRANKLIN AVENUE", "FACILITY_I": "08170501", "LATITUDE": 40.102921, "TELEPHONE_": "(267)463-8605", "ZIP_CODE": 19021.0}},{"geometry": {"type": "Point", "coordinates": [-75.17292499999996, 40.03455300000007]}, "type": "Feature", "id": 55, "properties": {"CITY": "PHILADELPHIA", "OBJECTID": 56, "GEOCODING_": "01", "LONGITUDE": -75.172925, "COUNTY": "PHILADELPHIA", "FACILITY_N": "AGING AND DIVERSE HOME HEALTHCARE SERVICES, LLC", "STREET": "5537 GERMANTOWN AVENUE 1ST FLOOR", "FACILITY_I": "07830501", "LATITUDE": 40.034553, "TELEPHONE_": "(215)991-6222", "ZIP_CODE": 19144.0}},{"geometry": {"type": "Point", "coordinates": [-75.24714099999994, 39.92928800000004]}, "type": "Feature", "id": 56, "properties": {"CITY": "LANSDOWNE", "OBJECTID": 57, "GEOCODING_": "01", "LONGITUDE": -75.247141, "COUNTY": "DELAWARE", "FACILITY_N": "ALERA HOME HEALTH LLC", "STREET": "941 CHURCH LANE", "FACILITY_I": "08280501", "LATITUDE": 39.929288, "TELEPHONE_": "(888)253-7220", "ZIP_CODE": 19050.0}},{"geometry": {"type": "Point", "coordinates": [-74.97661199999999, 40.125627000000065]}, "type": "Feature", "id": 57, "properties": {"CITY": "FEASTERVILLE TREVOSE", "OBJECTID": 58, "GEOCODING_": "01", "LONGITUDE": -74.976612, "COUNTY": "BUCKS", "FACILITY_N": "ALL AMERICAN HOME CARE LLC", "STREET": "ONE NESHAMINY INTERPLEX FLOOR 1 SUITE 104B", "FACILITY_I": "05570501", "LATITUDE": 40.125627, "TELEPHONE_": "(215)494-9902", "ZIP_CODE": 19053.0}},{"geometry": {"type": "Point", "coordinates": [-75.95208199999996, 40.941613000000075]}, "type": "Feature", "id": 58, "properties": {"CITY": "HAZLETON", "OBJECTID": 59, "GEOCODING_": "01", "LONGITUDE": -75.952082, "COUNTY": "LUZERNE", "FACILITY_N": "ALL CARE HOME CARE, INC.", "STREET": "1710 EAST BROAD STREET, SUITE B", "FACILITY_I": "744905", "LATITUDE": 40.941613, "TELEPHONE_": "(570)459-3002", "ZIP_CODE": 18201.0}},{"geometry": {"type": "Point", "coordinates": [-79.84050099999996, 42.21427600000004]}, "type": "Feature", "id": 59, "properties": {"CITY": "NORTH EAST", "OBJECTID": 60, "GEOCODING_": "01", "LONGITUDE": -79.840501, "COUNTY": "ERIE", "FACILITY_N": "ALL IN YOUR HOME, HOME CARE, LLC", "STREET": "93 WEST MAIN STREET", "FACILITY_I": "07150501", "LATITUDE": 42.214276, "TELEPHONE_": "(814)725-1217", "ZIP_CODE": 16428.0}},{"geometry": {"type": "Point", "coordinates": [-75.72762699999998, 41.354111000000046]}, "type": "Feature", "id": 60, "properties": {"CITY": "MOOSIC", "OBJECTID": 61, "GEOCODING_": "01", "LONGITUDE": -75.727627, "COUNTY": "LACKAWANNA", "FACILITY_N": "ALLCARE HOME HEALTH INC.", "STREET": "813 MAIN STREET", "FACILITY_I": "03380501", "LATITUDE": 41.354111, "TELEPHONE_": "(570)589-2112", "ZIP_CODE": 18507.0}},{"geometry": {"type": "Point", "coordinates": [-80.27588099999997, 40.16330500000004]}, "type": "Feature", "id": 61, "properties": {"CITY": "WASHINGTON", "OBJECTID": 62, "GEOCODING_": "01", "LONGITUDE": -80.275881, "COUNTY": "WASHINGTON", "FACILITY_N": "ALLEGHENY HEALTH NETWORK HEALTHCARE AT HOME HOME HEALTH", "STREET": "1500 WEST CHESTNUT STREET SUITE 744", "FACILITY_I": "03410501", "LATITUDE": 40.163305, "TELEPHONE_": "(724)222-9906", "STREET_2": "Suite 744", "ZIP_CODE": 15301.0}},{"geometry": {"type": "Point", "coordinates": [-80.10584999999998, 40.67463900000007]}, "type": "Feature", "id": 62, "properties": {"CITY": "WARRENDALE", "OBJECTID": 63, "GEOCODING_": "01", "LONGITUDE": -80.10585, "COUNTY": "ALLEGHENY", "FACILITY_N": "ALLEGHENY HEALTH NETWORK HEALTHCARE AT HOME HOME HEALTH", "STREET": "500 COMMONWEALTH DRIVE FIRST FLOOR", "FACILITY_I": "03090501", "LATITUDE": 40.674639, "TELEPHONE_": "(888)599-7328", "ZIP_CODE": 15086.0}},{"geometry": {"type": "Point", "coordinates": [-75.48694599999999, 40.59515300000004]}, "type": "Feature", "id": 63, "properties": {"CITY": "ALLENTOWN", "OBJECTID": 64, "GEOCODING_": "01", "LONGITUDE": -75.486946, "COUNTY": "LEHIGH", "FACILITY_N": "ALLEGIANCE NURSING, INC.", "STREET": "1501 UNION STREET", "FACILITY_I": "01930501", "LATITUDE": 40.595153, "TELEPHONE_": "(610)770-1002", "ZIP_CODE": 18102.0}},{"geometry": {"type": "Point", "coordinates": [-75.71207599999997, 41.47796200000005]}, "type": "Feature", "id": 64, "properties": {"CITY": "CLARKS SUMMIT", "OBJECTID": 65, "GEOCODING_": "01", "LONGITUDE": -75.712076, "COUNTY": "LACKAWANNA", "FACILITY_N": "ALLIED SERVICES HOME HEALTH", "STREET": "100 ABINGTON EXECUTIVE PARK", "FACILITY_I": "716705", "LATITUDE": 41.477962, "TELEPHONE_": "(570)348-2200", "ZIP_CODE": 18411.0}},{"geometry": {"type": "Point", "coordinates": [-77.21561299999996, 40.18440000000004]}, "type": "Feature", "id": 65, "properties": {"CITY": "CARLISLE", "OBJECTID": 66, "GEOCODING_": "01", "LONGITUDE": -77.215613, "COUNTY": "CUMBERLAND", "FACILITY_N": "ALMA HEALTH SKILLED SERVICES LLC", "STREET": "27 BROOKWOOD AVENUE", "FACILITY_I": "04080501", "LATITUDE": 40.1844, "TELEPHONE_": "(717)609-1565", "ZIP_CODE": 17015.0}},{"geometry": {"type": "Point", "coordinates": [-75.35829299999995, 39.91279300000008]}, "type": "Feature", "id": 66, "properties": {"CITY": "SPRINGFIELD", "OBJECTID": 67, "GEOCODING_": "01", "LONGITUDE": -75.358293, "COUNTY": "DELAWARE", "FACILITY_N": "ALPHA HOME HEALTH CARE, LLC", "STREET": "1489 BALTIMORE PIKE, SUITE 202", "FACILITY_I": "05940501", "LATITUDE": 39.912793, "TELEPHONE_": "(484)494-6313", "ZIP_CODE": 19064.0}},{"geometry": {"type": "Point", "coordinates": [-74.91985499999998, 40.229592000000025]}, "type": "Feature", "id": 67, "properties": {"CITY": "NEWTOWN", "OBJECTID": 68, "GEOCODING_": "01", "LONGITUDE": -74.919855, "COUNTY": "BUCKS", "FACILITY_N": "ALWAYS A STEP BEYOND", "STREET": "660 NEWTOWN YARDLEY ROAD, SUITE 102", "FACILITY_I": "05890501", "LATITUDE": 40.229592, "TELEPHONE_": "(215)693-6326", "ZIP_CODE": 18940.0}},{"geometry": {"type": "Point", "coordinates": [-75.14431203099997, 39.970324307000055]}, "type": "Feature", "id": 68, "properties": {"CITY": "PHILADELPHIA", "OBJECTID": 69, "GEOCODING_": "01", "LONGITUDE": -75.1443120313, "COUNTY": "PHILADELPHIA", "FACILITY_N": "ALWAYS BEST CARE", "STREET": "427 W. GIARAD AVENUE, 1ST FLOOR", "FACILITY_I": "05920501", "LATITUDE": 39.9703243071, "TELEPHONE_": "(267)909-9248", "ZIP_CODE": 19146.0}},{"geometry": {"type": "Point", "coordinates": [-75.03189899999995, 40.07259300000004]}, "type": "Feature", "id": 69, "properties": {"CITY": "PHILADELPHIA", "OBJECTID": 70, "GEOCODING_": "01", "LONGITUDE": -75.031899, "COUNTY": "PHILADELPHIA", "FACILITY_N": "ALWAYS INDEPENDENT INC", "STREET": "9150 MARSHALL STREET SUITE 12", "FACILITY_I": "04990501", "LATITUDE": 40.072593, "TELEPHONE_": "(267)343-5026", "ZIP_CODE": 19114.0}},{"geometry": {"type": "Point", "coordinates": [-75.03846199999998, 40.08603500000004]}, "type": "Feature", "id": 70, "properties": {"CITY": "PHILADELPHIA", "OBJECTID": 71, "GEOCODING_": "01", "LONGITUDE": -75.038462, "COUNTY": "PHILADELPHIA", "FACILITY_N": "AMAZING CARE HOME HEALTH SERVICES, LLC", "STREET": "1714 GRANT AVENUE SUITE 3", "FACILITY_I": "04960501", "LATITUDE": 40.086035, "TELEPHONE_": "(215)969-9500", "ZIP_CODE": 19115.0}},{"geometry": {"type": "Point", "coordinates": [-76.29565999999994, 40.04728200000005]}, "type": "Feature", "id": 71, "properties": {"CITY": "LANCASTER", "OBJECTID": 72, "GEOCODING_": "01", "LONGITUDE": -76.29566, "COUNTY": "LANCASTER", "FACILITY_N": "AMEDISYS HOME HEALTH", "STREET": "480 NEW HOLLAND AVE BUILDING 8 SUITE 8101", "FACILITY_I": "740105", "LATITUDE": 40.047282, "TELEPHONE_": "(717)291-8396", "ZIP_CODE": 17602.0}},{"geometry": {"type": "Point", "coordinates": [-79.90917199999996, 40.85553500000003]}, "type": "Feature", "id": 72, "properties": {"CITY": "BUTLER", "OBJECTID": 73, "GEOCODING_": "01", "LONGITUDE": -79.909172, "COUNTY": "BUTLER", "FACILITY_N": "AMEDISYS HOME HEALTH", "STREET": "240 PULLMAN SQUARE SUITE 255", "FACILITY_I": "04110501", "LATITUDE": 40.855535, "TELEPHONE_": "(724)284-4663", "ZIP_CODE": 16001.0}},{"geometry": {"type": "Point", "coordinates": [-79.75021599999997, 39.90726100000006]}, "type": "Feature", "id": 73, "properties": {"CITY": "UNIONTOWN", "OBJECTID": 74, "GEOCODING_": "01", "LONGITUDE": -79.750216, "COUNTY": "FAYETTE", "FACILITY_N": "AMEDISYS HOME HEALTH OF PA", "STREET": "1368 MALL RUN ROAD, SUITE 628", "FACILITY_I": "713905", "LATITUDE": 39.907261, "TELEPHONE_": "(724)438-6660", "ZIP_CODE": 15401.0}},{"geometry": {"type": "Point", "coordinates": [-75.15387899999996, 39.96154500000006]}, "type": "Feature", "id": 74, "properties": {"CITY": "PHILADELPHIA", "OBJECTID": 75, "GEOCODING_": "01", "LONGITUDE": -75.153879, "COUNTY": "PHILADELPHIA", "FACILITY_N": "AMERIBEST HOME CARE, INC.", "STREET": "990 SPRING GARDEN STREET, SUITE 201", "FACILITY_I": "02970501", "LATITUDE": 39.961545, "TELEPHONE_": "(215)925-3313", "ZIP_CODE": 19123.0}},{"geometry": {"type": "Point", "coordinates": [-75.03537099999994, 40.08748000000003]}, "type": "Feature", "id": 75, "properties": {"CITY": "PHILADELPHIA", "OBJECTID": 76, "GEOCODING_": "01", "LONGITUDE": -75.035371, "COUNTY": "PHILADELPHIA", "FACILITY_N": "AMERICA'S HOME HEALTH SERVICES", "STREET": "9622 BUSTLETON AVENUE, SUITE 2", "FACILITY_I": "03630501", "LATITUDE": 40.08748, "TELEPHONE_": "(215)745-7777", "ZIP_CODE": 19115.0}},{"geometry": {"type": "Point", "coordinates": [-75.27235599999995, 39.938258000000076]}, "type": "Feature", "id": 76, "properties": {"CITY": "LANSDOWNE", "OBJECTID": 77, "GEOCODING_": "01", "LONGITUDE": -75.272356, "COUNTY": "DELAWARE", "FACILITY_N": "AMERICANS HOME HEALTH CARE LLC", "STREET": "1 WEST BALTIMORE AVENUE", "FACILITY_I": "08150501", "LATITUDE": 39.938258, "TELEPHONE_": "(484)466-4012", "ZIP_CODE": 19050.0}},{"geometry": {"type": "Point", "coordinates": [-76.24627299999997, 40.080651000000046]}, "type": "Feature", "id": 77, "properties": {"CITY": "LANCASTER", "OBJECTID": 78, "GEOCODING_": "01", "LONGITUDE": -76.246273, "COUNTY": "LANCASTER", "FACILITY_N": "AMERISTAR HEALTHCARE SERVICES, LLC", "STREET": "2165 NEW HOLLAND PIKE", "FACILITY_I": "06390501", "LATITUDE": 40.080651, "TELEPHONE_": "(717)283-4474", "ZIP_CODE": 17603.0}},{"geometry": {"type": "Point", "coordinates": [-75.14405799999997, 39.95136900000006]}, "type": "Feature", "id": 78, "properties": {"CITY": "PHILADELPHIA", "OBJECTID": 79, "GEOCODING_": "01", "LONGITUDE": -75.144058, "COUNTY": "PHILADELPHIA", "FACILITY_N": "ANC HOME HEALTH SERVICES", "STREET": "219 CUTHBERT STREET SUITE 4B", "FACILITY_I": "04970501", "LATITUDE": 39.951369, "TELEPHONE_": "(610)696-5045", "ZIP_CODE": 19106.0}},{"geometry": {"type": "Point", "coordinates": [-79.00365899999997, 40.674645000000055]}, "type": "Feature", "id": 79, "properties": {"CITY": "CLYMER", "OBJECTID": 80, "GEOCODING_": "01", "LONGITUDE": -79.003659, "COUNTY": "INDIANA", "FACILITY_N": "ANEW HOME HEALTH AGENCY, INC.", "STREET": "9344 ROUTE 286 HIGHWAY EAST", "FACILITY_I": "77640501", "LATITUDE": 40.674645, "TELEPHONE_": "(724)465-9224", "ZIP_CODE": 15728.0}},{"geometry": {"type": "Point", "coordinates": [-75.30132899999995, 41.031453000000056]}, "type": "Feature", "id": 80, "properties": {"CITY": "TANNERSVILLE", "OBJECTID": 81, "GEOCODING_": "01", "LONGITUDE": -75.301329, "COUNTY": "MONROE", "FACILITY_N": "ANGEL HANDS HOME HEALTH INC.", "STREET": "2997 RT 611 SUITE 102", "FACILITY_I": "05790501", "LATITUDE": 41.031453, "TELEPHONE_": "(570)977-8655", "ZIP_CODE": 18372.0}},{"geometry": {"type": "Point", "coordinates": [-75.21132299999994, 39.96826400000003]}, "type": "Feature", "id": 81, "properties": {"CITY": "PHILADELPHIA", "OBJECTID": 82, "GEOCODING_": "01", "LONGITUDE": -75.211323, "COUNTY": "PHILADELPHIA", "FACILITY_N": "ANGELS ARE US HOME HEALTH AGENCY, LLC", "STREET": "868 N. 44TH STREET", "FACILITY_I": "06880501", "LATITUDE": 39.968264, "TELEPHONE_": "(610)606-8537", "ZIP_CODE": 19104.0}},{"geometry": {"type": "Point", "coordinates": [-75.04694399999994, 40.176240000000064]}, "type": "Feature", "id": 82, "properties": {"CITY": "SOUTHAMPTON", "OBJECTID": 83, "GEOCODING_": "01", "LONGITUDE": -75.046944, "COUNTY": "BUCKS", "FACILITY_N": "AT HOME REHAB, LLC", "STREET": "542 STREET ROAD", "FACILITY_I": "77860501", "LATITUDE": 40.17624, "TELEPHONE_": "(215)230-4140", "ZIP_CODE": 18966.0}},{"geometry": {"type": "Point", "coordinates": [-75.17261299999996, 40.08229000000006]}, "type": "Feature", "id": 83, "properties": {"CITY": "PHILADELPHIA", "OBJECTID": 84, "GEOCODING_": "01", "LONGITUDE": -75.172613, "COUNTY": "PHILADELPHIA", "FACILITY_N": "AT PEACE HEALTH CARE AGENCY", "STREET": "3222 WEST CHELTENHAM AVENUE, SUITE A1", "FACILITY_I": "04500501", "LATITUDE": 40.08229, "TELEPHONE_": "(484)468-1492", "ZIP_CODE": 19150.0}},{"geometry": {"type": "Point", "coordinates": [-75.29956499999997, 40.079098000000045]}, "type": "Feature", "id": 84, "properties": {"CITY": "CONSHOHOCKEN", "OBJECTID": 85, "GEOCODING_": "01", "LONGITUDE": -75.299565, "COUNTY": "MONTGOMERY", "FACILITY_N": "ATLANTIC HOME CARE INC.", "STREET": "101 E. 8TH AVENUE, SUITE 103", "FACILITY_I": "04280501", "LATITUDE": 40.079098, "TELEPHONE_": "(610)667-0376", "ZIP_CODE": 19428.0}},{"geometry": {"type": "Point", "coordinates": [-75.00443699999994, 40.145980000000066]}, "type": "Feature", "id": 85, "properties": {"CITY": "FEASTERVILLE", "OBJECTID": 86, "GEOCODING_": "01", "LONGITUDE": -75.004437, "COUNTY": "BUCKS", "FACILITY_N": "AURORA HOME CARE INC.", "STREET": "520 BUSTLETON PIKE", "FACILITY_I": "03520501", "LATITUDE": 40.14598, "TELEPHONE_": "(215)354-4444", "ZIP_CODE": 19053.0}},{"geometry": {"type": "Point", "coordinates": [-75.97656099999995, 40.342524000000026]}, "type": "Feature", "id": 86, "properties": {"CITY": "WYOMISSING", "OBJECTID": 87, "GEOCODING_": "01", "LONGITUDE": -75.976561, "COUNTY": "BERKS", "FACILITY_N": "AURORA HOME CARE, INC.", "STREET": "1150 BERKSHIRE BLVD SUITE 140", "FACILITY_I": "03400501", "LATITUDE": 40.342524, "TELEPHONE_": "(610)375-1800", "ZIP_CODE": 19610.0}},{"geometry": {"type": "Point", "coordinates": [-78.75296899999995, 41.12161700000007]}, "type": "Feature", "id": 87, "properties": {"CITY": "DUBOIS", "OBJECTID": 88, "GEOCODING_": "01", "LONGITUDE": -78.752969, "COUNTY": "CLEARFIELD", "FACILITY_N": "AVEANNA HEALTHCARE", "STREET": "482 JEFFERS STREET", "FACILITY_I": "04650501", "LATITUDE": 41.121617, "TELEPHONE_": "(855)427-4234", "ZIP_CODE": 15801.0}},{"geometry": {"type": "Point", "coordinates": [-75.58501599999994, 41.45617100000004]}, "type": "Feature", "id": 88, "properties": {"CITY": "OLYPHANT", "OBJECTID": 89, "GEOCODING_": "01", "LONGITUDE": -75.585016, "COUNTY": "LACKAWANNA", "FACILITY_N": "AVEANNA HEALTHCARE", "STREET": "1456 E LACKAWANNA AVENUE", "FACILITY_I": "05040501", "LATITUDE": 41.456171, "TELEPHONE_": "(570)319-2053", "ZIP_CODE": 18447.0}},{"geometry": {"type": "Point", "coordinates": [-75.64588599999996, 40.05807500000003]}, "type": "Feature", "id": 89, "properties": {"CITY": "EXTON", "OBJECTID": 90, "GEOCODING_": "01", "LONGITUDE": -75.645886, "COUNTY": "CHESTER", "FACILITY_N": "AVEANNA HEALTHCARE", "STREET": "102 PICKERING WAY SUITE 402", "FACILITY_I": "05730501", "LATITUDE": 40.058075, "TELEPHONE_": "(610)518-2128", "ZIP_CODE": 19341.0}},{"geometry": {"type": "Point", "coordinates": [-76.97554799999995, 41.25059200000004]}, "type": "Feature", "id": 90, "properties": {"CITY": "WILLIAMSPORT", "OBJECTID": 91, "GEOCODING_": "01", "LONGITUDE": -76.975548, "COUNTY": "LYCOMING", "FACILITY_N": "AVEANNA HEALTHCARE", "STREET": "1544 EAST 3RD STREET", "FACILITY_I": "05530501", "LATITUDE": 41.250592, "TELEPHONE_": "(570)601-4790", "ZIP_CODE": 17701.0}},{"geometry": {"type": "Point", "coordinates": [-75.12693199999995, 40.08891700000004]}, "type": "Feature", "id": 91, "properties": {"CITY": "JENKINTOWN", "OBJECTID": 92, "GEOCODING_": "01", "LONGITUDE": -75.126932, "COUNTY": "MONTGOMERY", "FACILITY_N": "AVEANNA HEALTHCARE", "STREET": "261 OLD YORK ROAD, SUITE 910", "FACILITY_I": "015305", "LATITUDE": 40.088917, "TELEPHONE_": "(610)660-8687", "ZIP_CODE": 19046.0}},{"geometry": {"type": "Point", "coordinates": [-75.27045299999997, 40.13098800000006]}, "type": "Feature", "id": 92, "properties": {"CITY": "BLUE BELL", "OBJECTID": 93, "GEOCODING_": "01", "LONGITUDE": -75.270453, "COUNTY": "MONTGOMERY", "FACILITY_N": "AVEANNA HEALTHCARE", "STREET": "FOUR SENTRY PARKWAY SUITE 105", "FACILITY_I": "719705", "LATITUDE": 40.130988, "TELEPHONE_": "(215)638-1454", "ZIP_CODE": 19422.0}},{"geometry": {"type": "Point", "coordinates": [-80.05856999999997, 40.61411100000004]}, "type": "Feature", "id": 93, "properties": {"CITY": "WEXFORD", "OBJECTID": 94, "GEOCODING_": "01", "LONGITUDE": -80.05857, "COUNTY": "ALLEGHENY", "FACILITY_N": "AVEANNA HEALTHCARE", "STREET": "9000 BROOKTREE ROAD SUITE 105", "FACILITY_I": "727805", "LATITUDE": 40.614111, "TELEPHONE_": "(412)367-3620", "ZIP_CODE": 15090.0}},{"geometry": {"type": "Point", "coordinates": [-76.85005699999994, 40.330610000000036]}, "type": "Feature", "id": 94, "properties": {"CITY": "HARRISBURG", "OBJECTID": 95, "GEOCODING_": "01", "LONGITUDE": -76.850057, "COUNTY": "DAUPHIN", "FACILITY_N": "AVEANNA HEALTHCARE", "STREET": "2805 OLD POST ROAD SUITE 210", "FACILITY_I": "760505", "LATITUDE": 40.33061, "TELEPHONE_": "(717)540-1051", "ZIP_CODE": 17110.0}},{"geometry": {"type": "Point", "coordinates": [-78.44865699999997, 41.809473000000025]}, "type": "Feature", "id": 95, "properties": {"CITY": "SMETHPORT", "OBJECTID": 96, "GEOCODING_": "01", "LONGITUDE": -78.448657, "COUNTY": "MCKEAN", "FACILITY_N": "AVEANNA HEALTHCARE", "STREET": "601 W MAIN STREET SUITE 1", "FACILITY_I": "766305", "LATITUDE": 41.809473, "TELEPHONE_": "(814)642-9500", "ZIP_CODE": 16749.0}},{"geometry": {"type": "Point", "coordinates": [-76.25043699999998, 40.053454000000045]}, "type": "Feature", "id": 96, "properties": {"CITY": "LANCASTER", "OBJECTID": 97, "GEOCODING_": "01", "LONGITUDE": -76.250437, "COUNTY": "LANCASTER", "FACILITY_N": "AVEANNA HEALTHCARE", "STREET": "1862 CHARTER LANE SUITE 102", "FACILITY_I": "745605", "LATITUDE": 40.053454, "TELEPHONE_": "(717)545-4940", "ZIP_CODE": 17601.0}},{"geometry": {"type": "Point", "coordinates": [-75.39136699999995, 39.93535900000006]}, "type": "Feature", "id": 97, "properties": {"CITY": "MEDIA", "OBJECTID": 98, "GEOCODING_": "01", "LONGITUDE": -75.391367, "COUNTY": "DELAWARE", "FACILITY_N": "AVEANNA HEALTHCARE", "STREET": "1400 NORTH PROVIDENCE ROAD SUITE 300 SOUTH", "FACILITY_I": "758305", "LATITUDE": 39.935359, "TELEPHONE_": "(215)887-4009", "ZIP_CODE": 19063.0}},{"geometry": {"type": "Point", "coordinates": [-80.07642099999998, 42.12410600000004]}, "type": "Feature", "id": 98, "properties": {"CITY": "ERIE", "OBJECTID": 99, "GEOCODING_": "01", "LONGITUDE": -80.076421, "COUNTY": "ERIE", "FACILITY_N": "AVEANNA HEALTHCARE", "STREET": "153 EAST 13TH STREET SUITE 4000", "FACILITY_I": "73100501", "LATITUDE": 42.124106, "TELEPHONE_": "(814)459-4849", "ZIP_CODE": 16503.0}},{"geometry": {"type": "Point", "coordinates": [-80.02524799999998, 40.44892600000003]}, "type": "Feature", "id": 99, "properties": {"CITY": "PITTSBURGH", "OBJECTID": 100, "GEOCODING_": "01", "LONGITUDE": -80.025248, "COUNTY": "ALLEGHENY", "FACILITY_N": "AVEANNA HEALTHCARE", "STREET": "1501 REEDSDALE ST, SU 4002, CARDELLO BDG", "FACILITY_I": "767705", "LATITUDE": 40.448926, "TELEPHONE_": "(412)322-4140", "ZIP_CODE": 15233.0}},{"geometry": {"type": "Point", "coordinates": [-74.97662399999996, 40.12557400000003]}, "type": "Feature", "id": 100, "properties": {"CITY": "TREVOSE", "OBJECTID": 101, "GEOCODING_": "01", "LONGITUDE": -74.976624, "COUNTY": "BUCKS", "FACILITY_N": "AVEANNA HEALTHCARE", "STREET": "4 NESHAMINY INTERPLEX, SUITE 204", "FACILITY_I": "77780501", "LATITUDE": 40.125574, "TELEPHONE_": "(267)520-3301", "ZIP_CODE": 19053.0}},{"geometry": {"type": "Point", "coordinates": [-77.83550899999994, 40.785352000000046]}, "type": "Feature", "id": 101, "properties": {"CITY": "STATE COLLEGE", "OBJECTID": 102, "GEOCODING_": "01", "LONGITUDE": -77.835509, "COUNTY": "CENTRE", "FACILITY_N": "AVEANNA HEALTHCARE", "STREET": "1631 SOUTH ATHERTON STREET, SUITE 201", "FACILITY_I": "77560501", "LATITUDE": 40.785352, "TELEPHONE_": "(814)235-9583", "ZIP_CODE": 16801.0}},{"geometry": {"type": "Point", "coordinates": [-79.81201599999997, 40.42878900000005]}, "type": "Feature", "id": 102, "properties": {"CITY": "PITTSBURGH", "OBJECTID": 103, "GEOCODING_": "01", "LONGITUDE": -79.812016, "COUNTY": "ALLEGHENY", "FACILITY_N": "AVEANNA HEALTHCARE", "STREET": "300 PENN CENTER BLVD SUITE 232", "FACILITY_I": "03970501", "LATITUDE": 40.428789, "TELEPHONE_": "(412)461-1603", "ZIP_CODE": 15235.0}},{"geometry": {"type": "Point", "coordinates": [-77.64498299999997, 39.94513800000004]}, "type": "Feature", "id": 103, "properties": {"CITY": "CHAMBERSBURG", "OBJECTID": 104, "GEOCODING_": "01", "LONGITUDE": -77.644983, "COUNTY": "FRANKLIN", "FACILITY_N": "AVEANNA HEALTHCARE", "STREET": "825 FIFTH AVENUE SUITE 201", "FACILITY_I": "03810501", "LATITUDE": 39.945138, "TELEPHONE_": "(717)263-2190", "ZIP_CODE": 17201.0}},{"geometry": {"type": "Point", "coordinates": [-75.22128699999996, 40.004815000000065]}, "type": "Feature", "id": 104, "properties": {"CITY": "BALA CYNWYD", "OBJECTID": 105, "GEOCODING_": "01", "LONGITUDE": -75.221287, "COUNTY": "MONTGOMERY", "FACILITY_N": "AVEANNA HEALTHCARE", "STREET": "ONE BELMONT AVENUE SUITE 200", "FACILITY_I": "02410501", "LATITUDE": 40.004815, "TELEPHONE_": "(215)884-3737", "ZIP_CODE": 19004.0}},{"geometry": {"type": "Point", "coordinates": [-75.12970799999994, 41.01641100000006]}, "type": "Feature", "id": 105, "properties": {"CITY": "EAST STROUDSBURG", "OBJECTID": 106, "GEOCODING_": "01", "LONGITUDE": -75.129708, "COUNTY": "MONROE", "FACILITY_N": "AVEANNA HEALTHCARE", "STREET": "507 SEVEN BRIDGE ROAD SUITE 202", "FACILITY_I": "02920501", "LATITUDE": 41.016411, "TELEPHONE_": "(570)223-6543", "ZIP_CODE": 18301.0}},{"geometry": {"type": "Point", "coordinates": [-75.53339799999998, 40.61397500000004]}, "type": "Feature", "id": 106, "properties": {"CITY": "ALLENTOWN", "OBJECTID": 107, "GEOCODING_": "01", "LONGITUDE": -75.533398, "COUNTY": "LEHIGH", "FACILITY_N": "AVEANNA HEALTHCARE", "STREET": "1605 NORTH CEDAR CREST BLVD SUITE 109", "FACILITY_I": "02910501", "LATITUDE": 40.613975, "TELEPHONE_": "(610)432-7403", "ZIP_CODE": 18104.0}},{"geometry": {"type": "Point", "coordinates": [-75.84778499999999, 41.263937000000055]}, "type": "Feature", "id": 107, "properties": {"CITY": "WILKES BARRE", "OBJECTID": 108, "GEOCODING_": "01", "LONGITUDE": -75.847785, "COUNTY": "LUZERNE", "FACILITY_N": "AVEANNA HEALTHCARE", "STREET": "1167 NORTH WASHINGTON STREET SUITE E", "FACILITY_I": "04250501", "LATITUDE": 41.263937, "TELEPHONE_": "(570)371-5606", "ZIP_CODE": 18705.0}},{"geometry": {"type": "Point", "coordinates": [-75.79832399999998, 41.326981000000046]}, "type": "Feature", "id": 108, "properties": {"CITY": "WEST PITTSTON", "OBJECTID": 109, "GEOCODING_": "01", "LONGITUDE": -75.798324, "COUNTY": "LUZERNE", "FACILITY_N": "AVEANNA HOME HEALTH", "STREET": "341 WYOMING AVENUE SUITE 2", "FACILITY_I": "03050501", "LATITUDE": 41.326981, "TELEPHONE_": "(570)655-3581", "ZIP_CODE": 18643.0}},{"geometry": {"type": "Point", "coordinates": [-75.39136699999995, 39.93535900000006]}, "type": "Feature", "id": 109, "properties": {"CITY": "MEDIA", "OBJECTID": 110, "GEOCODING_": "01", "LONGITUDE": -75.391367, "COUNTY": "DELAWARE", "FACILITY_N": "AVEANNA HOME HEALTH", "STREET": "1400 N PROVIDENCE ROAD SUITE 212", "FACILITY_I": "760305", "LATITUDE": 39.935359, "TELEPHONE_": "(610)543-4126", "ZIP_CODE": 19063.0}},{"geometry": {"type": "Point", "coordinates": [-75.16625099999999, 40.12934500000006]}, "type": "Feature", "id": 110, "properties": {"CITY": "DRESHER", "OBJECTID": 111, "GEOCODING_": "01", "LONGITUDE": -75.166251, "COUNTY": "MONTGOMERY", "FACILITY_N": "BACI HOME HEALTH CARE LLC", "STREET": "715 TWINING ROAD SUITE 203", "FACILITY_I": "05420501", "LATITUDE": 40.129345, "TELEPHONE_": "(215)367-5611", "ZIP_CODE": 19025.0}},{"geometry": {"type": "Point", "coordinates": [-80.03505499999994, 40.52997600000003]}, "type": "Feature", "id": 111, "properties": {"CITY": "PITTSBURGH", "OBJECTID": 112, "GEOCODING_": "01", "LONGITUDE": -80.035055, "COUNTY": "ALLEGHENY", "FACILITY_N": "BARBERRY RIDGE HOME HEALTH, INC.", "STREET": "800 PERRY HIGHWAY SUITE 4", "FACILITY_I": "07490501", "LATITUDE": 40.529976, "TELEPHONE_": "(412)536-1871", "ZIP_CODE": 15229.0}},{"geometry": {"type": "Point", "coordinates": [-75.87627499999996, 41.243187000000034]}, "type": "Feature", "id": 112, "properties": {"CITY": "WILKES BARRE", "OBJECTID": 113, "GEOCODING_": "01", "LONGITUDE": -75.876275, "COUNTY": "LUZERNE", "FACILITY_N": "BAYADA HOME HEALTH CARE, INC.", "STREET": "100 N WILKES BARRE BLVD, 2ND FLOOR, SUITE 207", "FACILITY_I": "767505", "LATITUDE": 41.243187, "TELEPHONE_": "(570)883-5700", "ZIP_CODE": 18702.0}},{"geometry": {"type": "Point", "coordinates": [-75.44974299999996, 40.639068000000066]}, "type": "Feature", "id": 113, "properties": {"CITY": "ALLENTOWN", "OBJECTID": 114, "GEOCODING_": "01", "LONGITUDE": -75.449743, "COUNTY": "LEHIGH", "FACILITY_N": "BAYADA HOME HEALTH CARE, INC.", "STREET": "881 MARCON BLVD SUITE 100", "FACILITY_I": "772205", "LATITUDE": 40.639068, "TELEPHONE_": "(610)776-7000", "ZIP_CODE": 18109.0}},{"geometry": {"type": "Point", "coordinates": [-76.24053299999997, 40.152022000000045]}, "type": "Feature", "id": 114, "properties": {"CITY": "LITITZ", "OBJECTID": 115, "GEOCODING_": "01", "LONGITUDE": -76.240533, "COUNTY": "LANCASTER", "FACILITY_N": "BAYADA HOME HEALTH CARE, INC.", "STREET": "2310 ROTHSVILLE ROAD SUITE 100", "FACILITY_I": "01830500", "LATITUDE": 40.152022, "TELEPHONE_": "(717)627-0215", "ZIP_CODE": 17543.0}},{"geometry": {"type": "Point", "coordinates": [-77.35644799999994, 41.15292100000005]}, "type": "Feature", "id": 115, "properties": {"CITY": "LOCK HAVEN", "OBJECTID": 116, "GEOCODING_": "01", "LONGITUDE": -77.356448, "COUNTY": "CLINTON", "FACILITY_N": "BAYADA HOME HEALTH CARE, INC.", "STREET": "1 OUTLET LANE SUITES 205/206", "FACILITY_I": "03660501", "LATITUDE": 41.152921, "TELEPHONE_": "(570)769-6330", "ZIP_CODE": 17745.0}},{"geometry": {"type": "Point", "coordinates": [-79.78592599999996, 40.43045100000006]}, "type": "Feature", "id": 116, "properties": {"CITY": "MONROEVILLE", "OBJECTID": 117, "GEOCODING_": "01", "LONGITUDE": -79.785926, "COUNTY": "ALLEGHENY", "FACILITY_N": "BAYADA HOME HEALTH CARE, INC.", "STREET": "300 OXFORD DRIVE SUITE 410", "FACILITY_I": "77630501", "LATITUDE": 40.430451, "TELEPHONE_": "(412)374-0110", "ZIP_CODE": 15146.0}},{"geometry": {"type": "Point", "coordinates": [-76.81358699999998, 40.271506000000045]}, "type": "Feature", "id": 117, "properties": {"CITY": "HARRISBURG", "OBJECTID": 118, "GEOCODING_": "01", "LONGITUDE": -76.813587, "COUNTY": "DAUPHIN", "FACILITY_N": "BAYADA HOME HEALTH CARE, INC.", "STREET": "750 EAST PARK DRIVE SUITE 102", "FACILITY_I": "77700501", "LATITUDE": 40.271506, "TELEPHONE_": "(717)561-8800", "ZIP_CODE": 17111.0}},{"geometry": {"type": "Point", "coordinates": [-76.44310999999993, 41.76432200000005]}, "type": "Feature", "id": 118, "properties": {"CITY": "TOWANDA", "OBJECTID": 119, "GEOCODING_": "01", "LONGITUDE": -76.44311, "COUNTY": "BRADFORD", "FACILITY_N": "BAYADA HOME HEALTH CARE, INC.", "STREET": "600 MAIN STREET SUITE 4", "FACILITY_I": "04170501", "LATITUDE": 41.764322, "TELEPHONE_": "(570)268-1001", "ZIP_CODE": 18848.0}},{"geometry": {"type": "Point", "coordinates": [-75.38733699999995, 39.984511000000055]}, "type": "Feature", "id": 119, "properties": {"CITY": "NEWTOWN SQUARE", "OBJECTID": 120, "GEOCODING_": "01", "LONGITUDE": -75.387337, "COUNTY": "DELAWARE", "FACILITY_N": "BAYADA HOME HEALTH CARE, INC.", "STREET": "3409 WEST CHESTER PIKE SUITE 102", "FACILITY_I": "759805", "LATITUDE": 39.984511, "TELEPHONE_": "(215)825-5580", "ZIP_CODE": 19073.0}},{"geometry": {"type": "Point", "coordinates": [-75.08646099999999, 40.26174600000007]}, "type": "Feature", "id": 120, "properties": {"CITY": "JAMISON", "OBJECTID": 121, "GEOCODING_": "01", "LONGITUDE": -75.086461, "COUNTY": "BUCKS", "FACILITY_N": "BAYADA HOME HEALTH CARE, INC.", "STREET": "2500 YORK ROAD, SUITE 140", "FACILITY_I": "77910501", "LATITUDE": 40.261746, "TELEPHONE_": "(215)293-9901", "ZIP_CODE": 18929.0}},{"geometry": {"type": "Point", "coordinates": [-75.27262399999995, 41.001960000000054]}, "type": "Feature", "id": 121, "properties": {"CITY": "BARTONSVILLE", "OBJECTID": 122, "GEOCODING_": "01", "LONGITUDE": -75.272624, "COUNTY": "MONROE", "FACILITY_N": "BAYADA HOME HEALTH CARE, INC.", "STREET": "3565 ROUTE 611, SUITE 100", "FACILITY_I": "03450501", "LATITUDE": 41.00196, "TELEPHONE_": "(570)421-3742", "ZIP_CODE": 18321.0}},{"geometry": {"type": "Point", "coordinates": [-75.98449699999998, 40.35536600000006]}, "type": "Feature", "id": 122, "properties": {"CITY": "WYOMISSING", "OBJECTID": 123, "GEOCODING_": "01", "LONGITUDE": -75.984497, "COUNTY": "BERKS", "FACILITY_N": "BAYADA HOME HEALTH CARE, INC.", "STREET": "2 MERIDIAN BOULEVARD 2ND FLOOR", "FACILITY_I": "02570501", "LATITUDE": 40.355366, "TELEPHONE_": "(610)375-3800", "ZIP_CODE": 19610.0}},{"geometry": {"type": "Point", "coordinates": [-76.24822899999998, 40.053495000000055]}, "type": "Feature", "id": 123, "properties": {"CITY": "LANCASTER", "OBJECTID": 124, "GEOCODING_": "01", "LONGITUDE": -76.248229, "COUNTY": "LANCASTER", "FACILITY_N": "BAYADA HOME HEALTH CARE, INC.", "STREET": "1850 WILLIAM PENN WAY SUITE 110", "FACILITY_I": "03490501", "LATITUDE": 40.053495, "TELEPHONE_": "(717)291-9000", "ZIP_CODE": 17601.0}},{"geometry": {"type": "Point", "coordinates": [-80.14362499999999, 42.09664600000008]}, "type": "Feature", "id": 124, "properties": {"CITY": "ERIE", "OBJECTID": 125, "GEOCODING_": "01", "LONGITUDE": -80.143625, "COUNTY": "ERIE", "FACILITY_N": "BAYADA HOME HEALTH CARE, INC.", "STREET": "1600 PENINSULA DRIVE, SUITE 17", "FACILITY_I": "02680501", "LATITUDE": 42.096646, "TELEPHONE_": "(814)835-2400", "ZIP_CODE": 16505.0}},{"geometry": {"type": "Point", "coordinates": [-75.81784399999998, 41.26216100000005]}, "type": "Feature", "id": 125, "properties": {"CITY": "WILKES BARRE", "OBJECTID": 126, "GEOCODING_": "01", "LONGITUDE": -75.817844, "COUNTY": "LUZERNE", "FACILITY_N": "BAYADA HOME HEALTH CARE, INC.", "STREET": "1189 HIGHWAY 315 SUITE 4", "FACILITY_I": "02730501", "LATITUDE": 41.262161, "TELEPHONE_": "(570)883-9022", "ZIP_CODE": 18702.0}},{"geometry": {"type": "Point", "coordinates": [-76.42006499999997, 41.00943100000006]}, "type": "Feature", "id": 126, "properties": {"CITY": "BLOOMSBURG", "OBJECTID": 127, "GEOCODING_": "01", "LONGITUDE": -76.420065, "COUNTY": "COLUMBIA", "FACILITY_N": "BAYADA HOME HEALTH CARE, INC.", "STREET": "2041 COLUMBIA BOULEVARD", "FACILITY_I": "02740501", "LATITUDE": 41.009431, "TELEPHONE_": "(570)389-1568", "ZIP_CODE": 17815.0}},{"geometry": {"type": "Point", "coordinates": [-75.28306599999996, 40.13455600000003]}, "type": "Feature", "id": 127, "properties": {"CITY": "BLUE BELL", "OBJECTID": 128, "GEOCODING_": "01", "LONGITUDE": -75.283066, "COUNTY": "MONTGOMERY", "FACILITY_N": "BAYADA HOME HEALTH CARE, INC.", "STREET": "512 TOWNSHIP LINE ROAD, BUILDING, 3 SUITE 303", "FACILITY_I": "06570501", "LATITUDE": 40.134556, "TELEPHONE_": "(610)277-1100", "ZIP_CODE": 19422.0}},{"geometry": {"type": "Point", "coordinates": [-75.67527899999999, 41.469246000000055]}, "type": "Feature", "id": 128, "properties": {"CITY": "CLARKS SUMMIT", "OBJECTID": 129, "GEOCODING_": "01", "LONGITUDE": -75.675279, "COUNTY": "LACKAWANNA", "FACILITY_N": "BAYADA HOME HEALTH CARE, INC.", "STREET": "233 NORTHERN BOULEVARD SUITE 5A", "FACILITY_I": "03860501", "LATITUDE": 41.469246, "TELEPHONE_": "(570)587-8000", "ZIP_CODE": 18411.0}},{"geometry": {"type": "Point", "coordinates": [-75.39136699999995, 39.93535900000006]}, "type": "Feature", "id": 129, "properties": {"CITY": "MEDIA", "OBJECTID": 130, "GEOCODING_": "01", "LONGITUDE": -75.391367, "COUNTY": "DELAWARE", "FACILITY_N": "BAYADA HOME HEALTH CARE, INC.", "STREET": "1400 N PROVIDENCE ROAD SUITE 210", "FACILITY_I": "06380501", "LATITUDE": 39.935359, "TELEPHONE_": "(610)891-1636", "ZIP_CODE": 19063.0}},{"geometry": {"type": "Point", "coordinates": [-75.13426099999998, 40.16237800000005]}, "type": "Feature", "id": 130, "properties": {"CITY": "WILLOW GROVE", "OBJECTID": 131, "GEOCODING_": "01", "LONGITUDE": -75.134261, "COUNTY": "MONTGOMERY", "FACILITY_N": "BAYADA HOME HEALTH CARE, INC.", "STREET": "2325 MARYLAND ROAD SUITE 225", "FACILITY_I": "03060501", "LATITUDE": 40.162378, "TELEPHONE_": "(215)657-3900", "ZIP_CODE": 19090.0}},{"geometry": {"type": "Point", "coordinates": [-75.40018599999996, 40.12458600000008]}, "type": "Feature", "id": 131, "properties": {"CITY": "NORRISTOWN", "OBJECTID": 132, "GEOCODING_": "01", "LONGITUDE": -75.400186, "COUNTY": "MONTGOMERY", "FACILITY_N": "BAYADA HOME HEALTH CARE, INC.", "STREET": "2490 BLVD OF THE GENERALS SUITE 130", "FACILITY_I": "03430501", "LATITUDE": 40.124586, "TELEPHONE_": "(610)648-9200", "ZIP_CODE": 19403.0}},{"geometry": {"type": "Point", "coordinates": [-76.99783399999995, 41.24272300000007]}, "type": "Feature", "id": 132, "properties": {"CITY": "WILLIAMSPORT", "OBJECTID": 133, "GEOCODING_": "01", "LONGITUDE": -76.997834, "COUNTY": "LYCOMING", "FACILITY_N": "BAYADA HOME HEALTH CARE, INC.", "STREET": "209 EAST THIRD STREET", "FACILITY_I": "04260501", "LATITUDE": 41.242723, "TELEPHONE_": "(570)326-2663", "ZIP_CODE": 17701.0}},{"geometry": {"type": "Point", "coordinates": [-75.38511481999996, 40.67458135900006]}, "type": "Feature", "id": 133, "properties": {"CITY": "BETHLEHEM", "OBJECTID": 134, "GEOCODING_": "01", "LONGITUDE": -75.3851148195, "COUNTY": "LEHIGH", "FACILITY_N": "BAYADA HOME HEALTH CARE, INC.", "STREET": "100 BRODHEAD ROAD SUITES 120A & 120B", "FACILITY_I": "04300501", "LATITUDE": 40.674581359, "TELEPHONE_": "(610)625-1577", "ZIP_CODE": 18017.0}},{"geometry": {"type": "Point", "coordinates": [-76.86214399999994, 40.80160200000006]}, "type": "Feature", "id": 134, "properties": {"CITY": "SELINSGROVE", "OBJECTID": 135, "GEOCODING_": "01", "LONGITUDE": -76.862144, "COUNTY": "SNYDER", "FACILITY_N": "BAYADA HOME HEALTH CARE, INC.", "STREET": "8 WEST SNYDER STREET", "FACILITY_I": "04440501", "LATITUDE": 40.801602, "TELEPHONE_": "(570)374-0000", "ZIP_CODE": 17870.0}},{"geometry": {"type": "Point", "coordinates": [-77.00127680799994, 41.243007171000045]}, "type": "Feature", "id": 135, "properties": {"CITY": "WILLIAMSPORT", "OBJECTID": 136, "GEOCODING_": "01", "LONGITUDE": -77.0012768079, "COUNTY": "LYCOMING", "FACILITY_N": "BAYADA HOME HEALTH CARE, INC.", "STREET": "49 EAST 4TH STREET SUITES 201 & 203", "FACILITY_I": "04450501", "LATITUDE": 41.2430071714, "TELEPHONE_": "(570)329-2200", "ZIP_CODE": 17701.0}},{"geometry": {"type": "Point", "coordinates": [-77.81568099999998, 40.82094700000005]}, "type": "Feature", "id": 136, "properties": {"CITY": "STATE COLLEGE", "OBJECTID": 137, "GEOCODING_": "01", "LONGITUDE": -77.815681, "COUNTY": "CENTRE", "FACILITY_N": "BAYADA HOME HEALTH CARE, INC.", "STREET": "2123 EAST COLLEGE AVENUE SUITE 200", "FACILITY_I": "04460501", "LATITUDE": 40.820947, "TELEPHONE_": "(814)235-9200", "ZIP_CODE": 16801.0}},{"geometry": {"type": "Point", "coordinates": [-76.96065999999996, 40.20156200000008]}, "type": "Feature", "id": 137, "properties": {"CITY": "MECHANICSBURG", "OBJECTID": 138, "GEOCODING_": "01", "LONGITUDE": -76.96066, "COUNTY": "CUMBERLAND", "FACILITY_N": "BAYADA HOME HEALTH CARE, INC.", "STREET": "5001 LOUISE DRIVE SUITE 203", "FACILITY_I": "04350501", "LATITUDE": 40.201562, "TELEPHONE_": "(717)795-5950", "ZIP_CODE": 17055.0}},{"geometry": {"type": "Point", "coordinates": [-80.15379499999995, 41.628554000000065]}, "type": "Feature", "id": 138, "properties": {"CITY": "MEADVILLE", "OBJECTID": 139, "GEOCODING_": "01", "LONGITUDE": -80.153795, "COUNTY": "CRAWFORD", "FACILITY_N": "BAYADA HOME HEALTH CARE, INC.", "STREET": "1305 SOUTH MAIN STREET, SUITE 201", "FACILITY_I": "07220501", "LATITUDE": 41.628554, "TELEPHONE_": "(814)333-8433", "ZIP_CODE": 16335.0}},{"geometry": {"type": "Point", "coordinates": [-75.71760199999994, 40.824839000000054]}, "type": "Feature", "id": 139, "properties": {"CITY": "LEHIGHTON", "OBJECTID": 140, "GEOCODING_": "01", "LONGITUDE": -75.717602, "COUNTY": "CARBON", "FACILITY_N": "BAYADA HOME HEALTH CARE, INC.", "STREET": "701 BRIDGE STREET SUITE 201", "FACILITY_I": "05950501", "LATITUDE": 40.824839, "TELEPHONE_": "(610)377-4717", "ZIP_CODE": 18235.0}},{"geometry": {"type": "Point", "coordinates": [-75.06853399999994, 40.00744000000003]}, "type": "Feature", "id": 140, "properties": {"CITY": "PHILADELPHIA", "OBJECTID": 141, "GEOCODING_": "01", "LONGITUDE": -75.068534, "COUNTY": "PHILADELPHIA", "FACILITY_N": "BAYADA HOME HEALTH CARE, INC.", "STREET": "2275 BRIDGE STREET BLDG 208, SUITE 220, UNIT 208D", "FACILITY_I": "723105", "LATITUDE": 40.00744, "TELEPHONE_": "(215)728-4200", "STREET_2": "FRANKFORD ARSENAL", "ZIP_CODE": 19137.0}},{"geometry": {"type": "Point", "coordinates": [-75.53861299999994, 40.61380800000006]}, "type": "Feature", "id": 141, "properties": {"CITY": "ALLENTOWN", "OBJECTID": 142, "GEOCODING_": "01", "LONGITUDE": -75.538613, "COUNTY": "LEHIGH", "FACILITY_N": "BAYADA HOME HEALTH CARE, INC.", "STREET": "1611 POND ROAD SUITE 103", "FACILITY_I": "753305", "LATITUDE": 40.613808, "TELEPHONE_": "(610)317-2118", "ZIP_CODE": 18104.0}},{"geometry": {"type": "Point", "coordinates": [-80.12918499999995, 42.10573900000003]}, "type": "Feature", "id": 142, "properties": {"CITY": "ERIE", "OBJECTID": 143, "GEOCODING_": "01", "LONGITUDE": -80.129185, "COUNTY": "ERIE", "FACILITY_N": "BAYADA HOME HEALTH CARE, INC.", "STREET": "2147 W 12TH STREET UNIT A-5", "FACILITY_I": "06050501", "LATITUDE": 42.105739, "TELEPHONE_": "(814)737-1494", "ZIP_CODE": 16505.0}},{"geometry": {"type": "Point", "coordinates": [-80.13680599999998, 40.79576300000008]}, "type": "Feature", "id": 143, "properties": {"CITY": "ZELIENOPLE", "OBJECTID": 144, "GEOCODING_": "01", "LONGITUDE": -80.136806, "COUNTY": "BUTLER", "FACILITY_N": "BAYADA HOME HEALTH CARE, INC.", "STREET": "115 EAST NEW CASTLE STREET", "FACILITY_I": "04600501", "LATITUDE": 40.795763, "TELEPHONE_": "(724)285-0009", "ZIP_CODE": 16063.0}},{"geometry": {"type": "Point", "coordinates": [-79.77623599999998, 40.442495000000065]}, "type": "Feature", "id": 144, "properties": {"CITY": "MONROEVILLE", "OBJECTID": 145, "GEOCODING_": "01", "LONGITUDE": -79.776236, "COUNTY": "ALLEGHENY", "FACILITY_N": "BAYADA HOME HEALTH CARE, INC.", "STREET": "4314 OLD WILLIAM PENN HIGHWAY, SUITE 207", "FACILITY_I": "07210501", "LATITUDE": 40.442495, "TELEPHONE_": "(412)229-4567", "ZIP_CODE": 15146.0}},{"geometry": {"type": "Point", "coordinates": [-75.64482899999996, 40.02661200000006]}, "type": "Feature", "id": 145, "properties": {"CITY": "EXTON", "OBJECTID": 146, "GEOCODING_": "01", "LONGITUDE": -75.644829, "COUNTY": "CHESTER", "FACILITY_N": "BAYADA HOME HEALTH CARE, INC.", "STREET": "390 WATERLOO BLVD SUITE 220", "FACILITY_I": "06300501", "LATITUDE": 40.026612, "TELEPHONE_": "(484)875-0200", "ZIP_CODE": 19341.0}},{"geometry": {"type": "Point", "coordinates": [-75.17274499999996, 39.95585500000004]}, "type": "Feature", "id": 146, "properties": {"CITY": "PHILADELPHIA", "OBJECTID": 147, "GEOCODING_": "01", "LONGITUDE": -75.172745, "COUNTY": "PHILADELPHIA", "FACILITY_N": "BAYADA HOME HEALTH CARE, INC.", "STREET": "100 N 20TH STREET SUITE 201", "FACILITY_I": "04940501", "LATITUDE": 39.955855, "TELEPHONE_": "(215)988-9006", "ZIP_CODE": 19103.0}},{"geometry": {"type": "Point", "coordinates": [-79.26003399999996, 40.43109700000008]}, "type": "Feature", "id": 147, "properties": {"CITY": "BLAIRSVILLE", "OBJECTID": 148, "GEOCODING_": "01", "LONGITUDE": -79.260034, "COUNTY": "INDIANA", "FACILITY_N": "BAYADA HOME HEALTH CARE, INC.", "STREET": "231 E MARKET STREET", "FACILITY_I": "05190501", "LATITUDE": 40.431097, "TELEPHONE_": "(724)459-0000", "ZIP_CODE": 15717.0}},{"geometry": {"type": "Point", "coordinates": [-75.70233199999996, 40.009105000000034]}, "type": "Feature", "id": 148, "properties": {"CITY": "DOWNINGTOWN", "OBJECTID": 149, "GEOCODING_": "01", "LONGITUDE": -75.702332, "COUNTY": "CHESTER", "FACILITY_N": "BAYADA HOME HEALTH CARE, INC.", "STREET": "150 EAST PENNSYLVANIA AVE, SUITE 525", "FACILITY_I": "05260501", "LATITUDE": 40.009105, "TELEPHONE_": "(610)873-8202", "ZIP_CODE": 19335.0}},{"geometry": {"type": "Point", "coordinates": [-75.08646099999999, 40.26174600000007]}, "type": "Feature", "id": 149, "properties": {"CITY": "JAMISON", "OBJECTID": 150, "GEOCODING_": "01", "LONGITUDE": -75.086461, "COUNTY": "BUCKS", "FACILITY_N": "BAYADA HOME HEALTH CARE, INC.", "STREET": "2500 YORK ROAD, SUITE 150", "FACILITY_I": "06810501", "LATITUDE": 40.261746, "TELEPHONE_": "(215)491-4090", "ZIP_CODE": 18929.0}},{"geometry": {"type": "Point", "coordinates": [-75.08540399999998, 40.05058900000006]}, "type": "Feature", "id": 150, "properties": {"CITY": "PHILADELPHIA", "OBJECTID": 151, "GEOCODING_": "01", "LONGITUDE": -75.085404, "COUNTY": "PHILADELPHIA", "FACILITY_N": "BE QUALITY CARE LLC", "STREET": "809 KERPER STREET", "FACILITY_I": "08470501", "LATITUDE": 40.050589, "TELEPHONE_": "(856)906-8939", "ZIP_CODE": 19111.0}},{"geometry": {"type": "Point", "coordinates": [-75.27183399999996, 39.94076200000006]}, "type": "Feature", "id": 151, "properties": {"CITY": "LANSDOWNE", "OBJECTID": 152, "GEOCODING_": "01", "LONGITUDE": -75.271834, "COUNTY": "DELAWARE", "FACILITY_N": "BELL ELITE SENIOR SOLUTIONS", "STREET": "14 E STRATFORD AVENUE, (1-A)", "FACILITY_I": "07650501", "LATITUDE": 39.940762, "TELEPHONE_": "(267)632-3284", "ZIP_CODE": 19050.0}},{"geometry": {"type": "Point", "coordinates": [-76.82673199999994, 40.30805900000007]}, "type": "Feature", "id": 152, "properties": {"CITY": "HARRISBURG", "OBJECTID": 153, "GEOCODING_": "01", "LONGITUDE": -76.826732, "COUNTY": "DAUPHIN", "FACILITY_N": "BELLO NURSES LLC", "STREET": "4230 CRUMS MILL ROAD", "FACILITY_I": "04610501", "LATITUDE": 40.308059, "TELEPHONE_": "(717)540-1700", "ZIP_CODE": 17112.0}},{"geometry": {"type": "Point", "coordinates": [-79.23740299999997, 40.25297100000006]}, "type": "Feature", "id": 153, "properties": {"CITY": "LIGONIER", "OBJECTID": 154, "GEOCODING_": "01", "LONGITUDE": -79.237403, "COUNTY": "WESTMORELAND", "FACILITY_N": "BETHLEN COMMUNITIES HOME HEALTH SERVICES", "STREET": "135 KALASSAY DRIVE", "FACILITY_I": "02850501", "LATITUDE": 40.252971, "TELEPHONE_": "(724)238-2613", "ZIP_CODE": 15658.0}},{"geometry": {"type": "Point", "coordinates": [-75.00199999999995, 40.15222400000005]}, "type": "Feature", "id": 154, "properties": {"CITY": "FEASTERVILLE", "OBJECTID": 155, "GEOCODING_": "01", "LONGITUDE": -75.002, "COUNTY": "BUCKS", "FACILITY_N": "BETTER HOME CARE LLC", "STREET": "1046 BUSTLETON PIKE", "FACILITY_I": "02770501", "LATITUDE": 40.152224, "TELEPHONE_": "(267)988-8978", "ZIP_CODE": 19053.0}},{"geometry": {"type": "Point", "coordinates": [-75.27653599999996, 39.900843000000066]}, "type": "Feature", "id": 155, "properties": {"CITY": "SHARON HILL", "OBJECTID": 156, "GEOCODING_": "01", "LONGITUDE": -75.276536, "COUNTY": "DELAWARE", "FACILITY_N": "BETTER LIFE HOME CARE HEALTH SERVICES, LLC", "STREET": "2009 ELMWOOD AVENUE, SUITE 201", "FACILITY_I": "08590501", "LATITUDE": 39.900843, "TELEPHONE_": "(267)247-2991", "ZIP_CODE": 19079.0}},{"geometry": {"type": "Point", "coordinates": [-75.10562299999998, 40.04203200000006]}, "type": "Feature", "id": 156, "properties": {"CITY": "PHILADELPHIA", "OBJECTID": 157, "GEOCODING_": "01", "LONGITUDE": -75.105623, "COUNTY": "PHILADELPHIA", "FACILITY_N": "BETTER LIVING HOME HEALTH CARE SERVICES LLC", "STREET": "5723 RISING SUN AVENUE SUITE 100", "FACILITY_I": "05660501", "LATITUDE": 40.042032, "TELEPHONE_": "(267)354-5205", "ZIP_CODE": 19120.0}},{"geometry": {"type": "Point", "coordinates": [-75.25453899999997, 39.910611000000074]}, "type": "Feature", "id": 157, "properties": {"CITY": "COLLINGDALE", "OBJECTID": 158, "GEOCODING_": "01", "LONGITUDE": -75.254539, "COUNTY": "DELAWARE", "FACILITY_N": "BISTOY HOME HEALTHCARE, INC.", "STREET": "501 S. 4TH STREET", "FACILITY_I": "08610501", "LATITUDE": 39.910611, "TELEPHONE_": "(215)917-3942", "ZIP_CODE": 19023.0}},{"geometry": {"type": "Point", "coordinates": [-75.15452899999997, 39.994027000000074]}, "type": "Feature", "id": 158, "properties": {"CITY": "PHILADELPHIA", "OBJECTID": 159, "GEOCODING_": "01", "LONGITUDE": -75.154529, "COUNTY": "PHILADELPHIA", "FACILITY_N": "BLESSINGS4EVER HOME HEALTH CARE SERVICES, LLC", "STREET": "2701 N BROAD STREET, SUITE 401", "FACILITY_I": "07700501", "LATITUDE": 39.994027, "TELEPHONE_": "(215)425-3950", "ZIP_CODE": 19132.0}},{"geometry": {"type": "Point", "coordinates": [-76.21763499999997, 40.67847800000004]}, "type": "Feature", "id": 159, "properties": {"CITY": "POTTSVILLE", "OBJECTID": 160, "GEOCODING_": "01", "LONGITUDE": -76.217635, "COUNTY": "SCHUYLKILL", "FACILITY_N": "BLUE MOUNTAIN HOME HEALTH CARE INC.", "STREET": "1851 W END AVENUE SUITE A", "FACILITY_I": "04670501", "LATITUDE": 40.678478, "TELEPHONE_": "(570)622-4444", "ZIP_CODE": 17901.0}},{"geometry": {"type": "Point", "coordinates": [-75.50259899999998, 40.593698000000074]}, "type": "Feature", "id": 160, "properties": {"CITY": "ALLENTOWN", "OBJECTID": 161, "GEOCODING_": "01", "LONGITUDE": -75.502599, "COUNTY": "LEHIGH", "FACILITY_N": "BLUE MOUNTAIN HOME HEALTH CARE LEHIGH VALLEY", "STREET": "2200 HAMILTON STREET, SUITE 309", "FACILITY_I": "07820501", "LATITUDE": 40.593698, "TELEPHONE_": "(484)221-8148", "ZIP_CODE": 18104.0}},{"geometry": {"type": "Point", "coordinates": [-75.12830099999996, 40.31301300000007]}, "type": "Feature", "id": 161, "properties": {"CITY": "DOYLESTOWN", "OBJECTID": 162, "GEOCODING_": "01", "LONGITUDE": -75.128301, "COUNTY": "BUCKS", "FACILITY_N": "BRIGHTSTAR CARE OF NORTH BUCKS COUNTY AND LANSDALE", "STREET": "122 EAST COURT STREET", "FACILITY_I": "06730501", "LATITUDE": 40.313013, "TELEPHONE_": "(267)245-8433", "ZIP_CODE": 18901.0}},{"geometry": {"type": "Point", "coordinates": [-75.29270799999995, 40.95836000000003]}, "type": "Feature", "id": 162, "properties": {"CITY": "STROUDSBURG", "OBJECTID": 163, "GEOCODING_": "01", "LONGITUDE": -75.292708, "COUNTY": "MONROE", "FACILITY_N": "BRIGHTSTAR CARE OF STROUDSBURG", "STREET": "6252 ROUTE 209", "FACILITY_I": "04730501", "LATITUDE": 40.95836, "TELEPHONE_": "(570)223-2248", "ZIP_CODE": 18360.0}},{"geometry": {"type": "Point", "coordinates": [-75.37651399999999, 40.16007500000006]}, "type": "Feature", "id": 163, "properties": {"CITY": "EAGLEVILLE", "OBJECTID": 164, "GEOCODING_": "01", "LONGITUDE": -75.376514, "COUNTY": "MONTGOMERY", "FACILITY_N": "BRIGHTSTAR CARE OF W. MONTGOMERY CO.", "STREET": "2939 WEST GERMANTOWN PIKE", "FACILITY_I": "08010501", "LATITUDE": 40.160075, "TELEPHONE_": "(484)685-5100", "ZIP_CODE": 19403.0}},{"geometry": {"type": "Point", "coordinates": [-76.65080599999999, 39.97989200000006]}, "type": "Feature", "id": 164, "properties": {"CITY": "YORK", "OBJECTID": 165, "GEOCODING_": "01", "LONGITUDE": -76.650806, "COUNTY": "YORK", "FACILITY_N": "BRIGHTSTAR CARE OF YORK, LANCASTER, AND HANOVER COUNTY", "STREET": "97 THEATRE LANE", "FACILITY_I": "08290501", "LATITUDE": 39.979892, "TELEPHONE_": "(717)317-1242", "ZIP_CODE": 17402.0}},{"geometry": {"type": "Point", "coordinates": [-75.37462199999999, 40.62219600000003]}, "type": "Feature", "id": 165, "properties": {"CITY": "BETHLEHEM", "OBJECTID": 166, "GEOCODING_": "01", "LONGITUDE": -75.374622, "COUNTY": "NORTHAMPTON", "FACILITY_N": "BRIGHTSTAR OF LEHIGH VALLEY", "STREET": "118 E. BROAD STREET", "FACILITY_I": "04690501", "LATITUDE": 40.622196, "TELEPHONE_": "(610)814-7300", "ZIP_CODE": 18018.0}},{"geometry": {"type": "Point", "coordinates": [-80.01076399999994, 40.53280900000004]}, "type": "Feature", "id": 166, "properties": {"CITY": "PITTSBURGH", "OBJECTID": 167, "GEOCODING_": "01", "LONGITUDE": -80.010764, "COUNTY": "ALLEGHENY", "FACILITY_N": "BRIGHTSTAR OF NORTH HILLS PITTSBURGH", "STREET": "5000 MCKNIGHT ROAD SUITE 200", "FACILITY_I": "08110501", "LATITUDE": 40.532809, "TELEPHONE_": "(412)369-5100", "ZIP_CODE": 15237.0}},{"geometry": {"type": "Point", "coordinates": [-75.41012599999993, 40.07519800000006]}, "type": "Feature", "id": 167, "properties": {"CITY": "WAYNE", "OBJECTID": 168, "GEOCODING_": "01", "LONGITUDE": -75.410126, "COUNTY": "DELAWARE", "FACILITY_N": "BROOKDALE HOME HEALTH PHILADELPHIA", "STREET": "995 OLD EAGLE SCHOOL ROAD SUITE 314", "FACILITY_I": "02580501", "LATITUDE": 40.075198, "TELEPHONE_": "(610)265-2846", "ZIP_CODE": 19087.0}},{"geometry": {"type": "Point", "coordinates": [-75.17819099999997, 39.93592700000005]}, "type": "Feature", "id": 168, "properties": {"CITY": "PHILADELPHIA", "OBJECTID": 169, "GEOCODING_": "01", "LONGITUDE": -75.178191, "COUNTY": "PHILADELPHIA", "FACILITY_N": "BROOKS ALTERNATIVE AGENCY INC", "STREET": "1242 POINT BREEZE AVENUE", "FACILITY_I": "08240501", "LATITUDE": 39.935927, "TELEPHONE_": "(800)282-2208", "ZIP_CODE": 19146.0}},{"geometry": {"type": "Point", "coordinates": [-76.90974599999998, 40.25783300000006]}, "type": "Feature", "id": 169, "properties": {"CITY": "LEMOYNE", "OBJECTID": 170, "GEOCODING_": "01", "LONGITUDE": -76.909746, "COUNTY": "CUMBERLAND", "FACILITY_N": "C & OPD, LLC.", "STREET": "1013 MUMMA ROAD SUITE 100", "FACILITY_I": "07030501", "LATITUDE": 40.257833, "TELEPHONE_": "(717)547-5407", "ZIP_CODE": 17043.0}},{"geometry": {"type": "Point", "coordinates": [-78.75580099999996, 40.37529400000005]}, "type": "Feature", "id": 170, "properties": {"CITY": "SUMMERHILL", "OBJECTID": 171, "GEOCODING_": "01", "LONGITUDE": -78.755801, "COUNTY": "CAMBRIA", "FACILITY_N": "CAMBRIA HOME HEALTH, INC.", "STREET": "1506 RAILROAD STREET", "FACILITY_I": "745805", "LATITUDE": 40.375294, "TELEPHONE_": "(814)495-4484", "ZIP_CODE": 15958.0}},{"geometry": {"type": "Point", "coordinates": [-79.84200799999996, 40.53573200000005]}, "type": "Feature", "id": 171, "properties": {"CITY": "PITTSBURGH", "OBJECTID": 172, "GEOCODING_": "01", "LONGITUDE": -79.842008, "COUNTY": "ALLEGHENY", "FACILITY_N": "CARE AT HOME PREFERRED, INC.", "STREET": "2585 FREEPORT ROAD, SUITE 101", "FACILITY_I": "725905", "LATITUDE": 40.535732, "TELEPHONE_": "(412)967-1111", "ZIP_CODE": 15238.0}},{"geometry": {"type": "Point", "coordinates": [-75.28261699999996, 39.96617100000003]}, "type": "Feature", "id": 172, "properties": {"CITY": "UPPER DARBY", "OBJECTID": 173, "GEOCODING_": "01", "LONGITUDE": -75.282617, "COUNTY": "DELAWARE", "FACILITY_N": "CARE FIRST HOME HEALTH INC.", "STREET": "8400 WEST CHESTER PIKE", "FACILITY_I": "05070501", "LATITUDE": 39.966171, "TELEPHONE_": "(610)572-3440", "ZIP_CODE": 19082.0}},{"geometry": {"type": "Point", "coordinates": [-75.18017899999995, 40.04793200000006]}, "type": "Feature", "id": 173, "properties": {"CITY": "PHILADELPHIA", "OBJECTID": 174, "GEOCODING_": "01", "LONGITUDE": -75.180179, "COUNTY": "PHILADELPHIA", "FACILITY_N": "CARE IN ACTION HOME HEALTHCARE AGENCY LLC", "STREET": "105 E JOHNSON ST", "FACILITY_I": "06140501", "LATITUDE": 40.047932, "TELEPHONE_": "(215)848-0846", "ZIP_CODE": 19144.0}},{"geometry": {"type": "Point", "coordinates": [-75.21696999999995, 40.01122200000003]}, "type": "Feature", "id": 174, "properties": {"CITY": "BALA CYNWYD", "OBJECTID": 175, "GEOCODING_": "01", "LONGITUDE": -75.21697, "COUNTY": "MONTGOMERY", "FACILITY_N": "CARE IS OUR PRIORITY, LLC", "STREET": "150 MONUMENT ROAD SUITE 207", "FACILITY_I": "08220501", "LATITUDE": 40.011222, "TELEPHONE_": "(484)278-6556", "ZIP_CODE": 19004.0}},{"geometry": {"type": "Point", "coordinates": [-80.24977199999995, 40.17184400000008]}, "type": "Feature", "id": 175, "properties": {"CITY": "WASHINGTON", "OBJECTID": 176, "GEOCODING_": "01", "LONGITUDE": -80.249772, "COUNTY": "WASHINGTON", "FACILITY_N": "CARE PLUS HOME HEALTH SERVICES, INC.", "STREET": "192 W CHESTNUT STREET", "FACILITY_I": "771005", "LATITUDE": 40.171844, "TELEPHONE_": "(724)225-2444", "ZIP_CODE": 15301.0}},{"geometry": {"type": "Point", "coordinates": [-75.69808499999994, 41.49142400000005]}, "type": "Feature", "id": 176, "properties": {"CITY": "CLARKS SUMMIT", "OBJECTID": 177, "GEOCODING_": "01", "LONGITUDE": -75.698085, "COUNTY": "LACKAWANNA", "FACILITY_N": "CAREGIVERS AMERICA HOME HEALTH SERVICES LLC", "STREET": "718 SOUTH STATE STREET", "FACILITY_I": "03120501", "LATITUDE": 41.491424, "TELEPHONE_": "(570)586-2222", "ZIP_CODE": 18411.0}},{"geometry": {"type": "Point", "coordinates": [-75.43888799999996, 40.643133000000034]}, "type": "Feature", "id": 177, "properties": {"CITY": "ALLENTOWN", "OBJECTID": 178, "GEOCODING_": "01", "LONGITUDE": -75.438888, "COUNTY": "LEHIGH", "FACILITY_N": "CAREGIVERS AMERICA HOME HEALTH SERVICES LLC", "STREET": "961 MARCON BLVD SUITE 440", "FACILITY_I": "04840501", "LATITUDE": 40.643133, "TELEPHONE_": "(610)231-2022", "ZIP_CODE": 18109.0}},{"geometry": {"type": "Point", "coordinates": [-75.12693199999995, 40.08891700000004]}, "type": "Feature", "id": 178, "properties": {"CITY": "JENKINTOWN", "OBJECTID": 179, "GEOCODING_": "01", "LONGITUDE": -75.126932, "COUNTY": "MONTGOMERY", "FACILITY_N": "CAREGIVERS AMERICA SE", "STREET": "261 OLD YORK ROAD SUITE A35", "FACILITY_I": "04340501", "LATITUDE": 40.088917, "TELEPHONE_": "(215)874-8857", "ZIP_CODE": 19046.0}},{"geometry": {"type": "Point", "coordinates": [-80.13768599999997, 42.09143300000005]}, "type": "Feature", "id": 179, "properties": {"CITY": "ERIE", "OBJECTID": 180, "GEOCODING_": "01", "LONGITUDE": -80.137686, "COUNTY": "ERIE", "FACILITY_N": "CAREGIVERS HEALTH SERVICES", "STREET": "2820 WEST 23RD STREET, SUITE 8", "FACILITY_I": "003105", "LATITUDE": 42.091433, "TELEPHONE_": "(814)838-8696", "ZIP_CODE": 16506.0}},{"geometry": {"type": "Point", "coordinates": [-75.41004399999997, 40.07501600000006]}, "type": "Feature", "id": 180, "properties": {"CITY": "WAYNE", "OBJECTID": 181, "GEOCODING_": "01", "LONGITUDE": -75.410044, "COUNTY": "DELAWARE", "FACILITY_N": "CAREPINE HOME HEALTH, LLC", "STREET": "983 OLD EAGLE SCHOOL ROAD SUITE 618", "FACILITY_I": "05090501", "LATITUDE": 40.075016, "TELEPHONE_": "(215)874-8535", "ZIP_CODE": 19087.0}},{"geometry": {"type": "Point", "coordinates": [-75.51937399999997, 40.57188800000006]}, "type": "Feature", "id": 181, "properties": {"CITY": "ALLENTOWN", "OBJECTID": 182, "GEOCODING_": "01", "LONGITUDE": -75.519374, "COUNTY": "LEHIGH", "FACILITY_N": "CAREPINE HOME HEALTH, LLC", "STREET": "1125 S CEDAR CREST SUITE 204", "FACILITY_I": "05960501", "LATITUDE": 40.571888, "TELEPHONE_": "(484)550-7636", "ZIP_CODE": 18103.0}},{"geometry": {"type": "Point", "coordinates": [-75.24921799999998, 40.97379200000006]}, "type": "Feature", "id": 182, "properties": {"CITY": "STROUDSBURG", "OBJECTID": 183, "GEOCODING_": "01", "LONGITUDE": -75.249218, "COUNTY": "MONROE", "FACILITY_N": "CAREPINE HOME HEALTH, LLC", "STREET": "7164 ROUTE 209, SUITE #410", "FACILITY_I": "06190501", "LATITUDE": 40.973792, "TELEPHONE_": "(570)234-0931", "ZIP_CODE": 18360.0}},{"geometry": {"type": "Point", "coordinates": [-75.25024599999995, 40.262068000000056]}, "type": "Feature", "id": 183, "properties": {"CITY": "MONTGOMERYVILLE", "OBJECTID": 184, "GEOCODING_": "01", "LONGITUDE": -75.250246, "COUNTY": "MONTGOMERY", "FACILITY_N": "CARESENSE HOME HEALTH", "STREET": "589 BETHLEHAM PIKE SUITE 1000", "FACILITY_I": "04780501", "LATITUDE": 40.262068, "TELEPHONE_": "(888)444-8157", "ZIP_CODE": 18936.0}},{"geometry": {"type": "Point", "coordinates": [-75.88736699999998, 40.32781200000005]}, "type": "Feature", "id": 184, "properties": {"CITY": "READING", "OBJECTID": 185, "GEOCODING_": "01", "LONGITUDE": -75.887367, "COUNTY": "BERKS", "FACILITY_N": "CARESENSE HOME HEALTH", "STREET": "2509 PERKIOMEN AVENUE", "FACILITY_I": "06900501", "LATITUDE": 40.327812, "TELEPHONE_": "(888)444-8157", "ZIP_CODE": 19606.0}},{"geometry": {"type": "Point", "coordinates": [-75.09542599999997, 40.04972500000008]}, "type": "Feature", "id": 185, "properties": {"CITY": "PHILADELPHIA", "OBJECTID": 186, "GEOCODING_": "01", "LONGITUDE": -75.095426, "COUNTY": "PHILADELPHIA", "FACILITY_N": "CARESIFY ADVANTAGE", "STREET": "6405 RISING SUN AVENUE", "FACILITY_I": "08550501", "LATITUDE": 40.049725, "TELEPHONE_": "(215)631-8000", "ZIP_CODE": 19111.0}},{"geometry": {"type": "Point", "coordinates": [-75.37832099999997, 40.622352000000035]}, "type": "Feature", "id": 186, "properties": {"CITY": "BETHLEHEM", "OBJECTID": 187, "GEOCODING_": "01", "LONGITUDE": -75.378321, "COUNTY": "LEHIGH", "FACILITY_N": "CARESPHERE, LLC", "STREET": "1 EAST BROAD STREET SUITE 430", "FACILITY_I": "758705", "LATITUDE": 40.622352, "TELEPHONE_": "(610)868-1801", "ZIP_CODE": 18018.0}},{"geometry": {"type": "Point", "coordinates": [-75.96819199999999, 39.81679600000007]}, "type": "Feature", "id": 187, "properties": {"CITY": "OXFORD", "OBJECTID": 188, "GEOCODING_": "01", "LONGITUDE": -75.968192, "COUNTY": "CHESTER", "FACILITY_N": "BRANDYWINE RIVER VALLEY HOME HEALTH", "STREET": "125 BELL TOWER LANE, SUITE 1C", "FACILITY_I": "740005", "LATITUDE": 39.816796, "TELEPHONE_": "(610)998-1700", "ZIP_CODE": 19363.0}},{"geometry": {"type": "Point", "coordinates": [-75.39865299999997, 40.04582700000003]}, "type": "Feature", "id": 188, "properties": {"CITY": "WAYNE", "OBJECTID": 189, "GEOCODING_": "01", "LONGITUDE": -75.398653, "COUNTY": "DELAWARE", "FACILITY_N": "BRIGHTSTAR CARE - THE MAIN LINE", "STREET": "175 STRAFFORD AVENUE SUITE 215", "FACILITY_I": "06580501", "LATITUDE": 40.045827, "TELEPHONE_": "(610)254-0600", "ZIP_CODE": 19087.0}},{"geometry": {"type": "Point", "coordinates": [-74.94573699999995, 40.09693800000008]}, "type": "Feature", "id": 189, "properties": {"CITY": "BENSALEM", "OBJECTID": 190, "GEOCODING_": "01", "LONGITUDE": -74.945737, "COUNTY": "BUCKS", "FACILITY_N": "BRIGHTSTAR CARE OF  SOUTH BUCKS AND SOUTHEAST MONTGOMERY COU", "STREET": "1950 STREET ROAD, SUITE 315", "FACILITY_I": "05310501", "LATITUDE": 40.096938, "TELEPHONE_": "(215)750-8802", "ZIP_CODE": 19020.0}},{"geometry": {"type": "Point", "coordinates": [-77.87854099999998, 40.76406100000003]}, "type": "Feature", "id": 190, "properties": {"CITY": "STATE COLLEGE", "OBJECTID": 191, "GEOCODING_": "01", "LONGITUDE": -77.878541, "COUNTY": "CENTRE", "FACILITY_N": "BRIGHTSTAR CARE OF HAPPY VALLEY", "STREET": "1969 CATO AVENUE, BUILDING A", "FACILITY_I": "06260501", "LATITUDE": 40.764061, "TELEPHONE_": "(814)826-3200", "ZIP_CODE": 16801.0}},{"geometry": {"type": "Point", "coordinates": [-75.54661499999997, 39.878547000000026]}, "type": "Feature", "id": 191, "properties": {"CITY": "CHADDS FORD", "OBJECTID": 192, "GEOCODING_": "01", "LONGITUDE": -75.546615, "COUNTY": "CHESTER", "FACILITY_N": "CRITICARE HOME AND NURSING SERVICES", "STREET": "5 CHRISTY DRIVE SUITE 104", "FACILITY_I": "765305", "LATITUDE": 39.878547, "TELEPHONE_": "(610)675-1111", "ZIP_CODE": 19317.0}},{"geometry": {"type": "Point", "coordinates": [-76.35938499999997, 40.04817000000003]}, "type": "Feature", "id": 192, "properties": {"CITY": "LANCASTER", "OBJECTID": 193, "GEOCODING_": "01", "LONGITUDE": -76.359385, "COUNTY": "LANCASTER", "FACILITY_N": "CRITICARE LANCASTER, INC.", "STREET": "2135 NOLL DRIVE SUITE A", "FACILITY_I": "03250501", "LATITUDE": 40.04817, "TELEPHONE_": "(717)844-6300", "ZIP_CODE": 17603.0}},{"geometry": {"type": "Point", "coordinates": [-75.28394699999996, 39.953967000000034]}, "type": "Feature", "id": 193, "properties": {"CITY": "DREXEL HILL", "OBJECTID": 194, "GEOCODING_": "01", "LONGITUDE": -75.283947, "COUNTY": "DELAWARE", "FACILITY_N": "CROZER KEYSTONE HOME HEALTH", "STREET": "501 N LANSDOWNE AVENUE, 2 EAST", "FACILITY_I": "753705", "LATITUDE": 39.953967, "TELEPHONE_": "(610)284-0700", "ZIP_CODE": 19026.0}},{"geometry": {"type": "Point", "coordinates": [-80.06987799999996, 40.40892100000008]}, "type": "Feature", "id": 194, "properties": {"CITY": "CARNEGIE", "OBJECTID": 195, "GEOCODING_": "01", "LONGITUDE": -80.069878, "COUNTY": "ALLEGHENY", "FACILITY_N": "CRYSTAL HOME HEALTH AGENCY", "STREET": "180 WOODRIDGE DRIVE", "FACILITY_I": "06230501", "LATITUDE": 40.408921, "TELEPHONE_": "(412)641-9898", "ZIP_CODE": 15106.0}},{"geometry": {"type": "Point", "coordinates": [-75.22481399999998, 39.96056200000004]}, "type": "Feature", "id": 195, "properties": {"CITY": "PHILADELPHIA", "OBJECTID": 196, "GEOCODING_": "01", "LONGITUDE": -75.224814, "COUNTY": "PHILADELPHIA", "FACILITY_N": "DAILY DOVE CARE LLC", "STREET": "16 N. 52ND STREET", "FACILITY_I": "07110501", "LATITUDE": 39.960562, "TELEPHONE_": "(267)422-9944", "ZIP_CODE": 19139.0}},{"geometry": {"type": "Point", "coordinates": [-79.14742899999999, 41.84539600000005]}, "type": "Feature", "id": 196, "properties": {"CITY": "WARREN", "OBJECTID": 197, "GEOCODING_": "01", "LONGITUDE": -79.147429, "COUNTY": "WARREN", "FACILITY_N": "DARLING'S HOME CARE", "STREET": "220 LIBERTY STREET", "FACILITY_I": "05850501", "LATITUDE": 41.845396, "TELEPHONE_": "(814)230-9233", "ZIP_CODE": 16365.0}},{"geometry": {"type": "Point", "coordinates": [-75.53996599999994, 40.572250000000054]}, "type": "Feature", "id": 197, "properties": {"CITY": "ALLENTOWN", "OBJECTID": 198, "GEOCODING_": "01", "LONGITUDE": -75.539966, "COUNTY": "LEHIGH", "FACILITY_N": "DEDICATED NURSING ASSOCIATES OF PA", "STREET": "3325 HAMILTON BOULEVARD", "FACILITY_I": "01840500", "LATITUDE": 40.57225, "TELEPHONE_": "(877)227-6656", "ZIP_CODE": 18104.0}},{"geometry": {"type": "Point", "coordinates": [-75.04341099999994, 40.060388000000046]}, "type": "Feature", "id": 198, "properties": {"CITY": "PHILADELPHIA", "OBJECTID": 199, "GEOCODING_": "01", "LONGITUDE": -75.043411, "COUNTY": "PHILADELPHIA", "FACILITY_N": "DEER MEADOWS HOME HEALTH AND SUPPORT SERVICES, LLC", "STREET": "8301 ROOSEVELT BOULEVARD", "FACILITY_I": "03890501", "LATITUDE": 40.060388, "TELEPHONE_": "(215)624-6038", "ZIP_CODE": 19152.0}},{"geometry": {"type": "Point", "coordinates": [-75.26689999999996, 39.957129000000066]}, "type": "Feature", "id": 199, "properties": {"CITY": "UPPER DARBY", "OBJECTID": 200, "GEOCODING_": "01", "LONGITUDE": -75.2669, "COUNTY": "DELAWARE", "FACILITY_N": "DEL COMMUNITY HOME CARE AGENCY, LLC", "STREET": "351 HUNTLEY ROAD", "FACILITY_I": "08320501", "LATITUDE": 39.957129, "TELEPHONE_": "(610)553-7938", "ZIP_CODE": 19082.0}},{"geometry": {"type": "Point", "coordinates": [-75.14172899999994, 39.98505000000006]}, "type": "Feature", "id": 200, "properties": {"CITY": "PHILADELPHIA", "OBJECTID": 201, "GEOCODING_": "01", "LONGITUDE": -75.141729, "COUNTY": "PHILADELPHIA", "FACILITY_N": "DELIA MARIA HOME CARE AGENCY, LLC", "STREET": "2945-47 N. 5TH STREET", "FACILITY_I": "08020501", "LATITUDE": 39.98505, "TELEPHONE_": "(215)288-3653", "ZIP_CODE": 19133.0}},{"geometry": {"type": "Point", "coordinates": [-74.92207799999994, 40.114325000000065]}, "type": "Feature", "id": 201, "properties": {"CITY": "BENSALEM", "OBJECTID": 202, "GEOCODING_": "01", "LONGITUDE": -74.922078, "COUNTY": "BUCKS", "FACILITY_N": "DEPENDABLE HOME CARE, INC.", "STREET": "116 CASEY LANE", "FACILITY_I": "06220501", "LATITUDE": 40.114325, "TELEPHONE_": "(215)722-7400", "ZIP_CODE": 19020.0}},{"geometry": {"type": "Point", "coordinates": [-75.07260499999995, 40.044478000000026]}, "type": "Feature", "id": 202, "properties": {"CITY": "PHILADELPHIA", "OBJECTID": 203, "GEOCODING_": "01", "LONGITUDE": -75.072605, "COUNTY": "PHILADELPHIA", "FACILITY_N": "DIVINE HEALTH CARE SERVICES", "STREET": "6800 CASTOR AVENUE, SUITE B", "FACILITY_I": "02940501", "LATITUDE": 40.044478, "TELEPHONE_": "(215)745-8492", "ZIP_CODE": 19149.0}},{"geometry": {"type": "Point", "coordinates": [-75.19430699999998, 40.98587900000007]}, "type": "Feature", "id": 203, "properties": {"CITY": "STROUDSBURG", "OBJECTID": 204, "GEOCODING_": "01", "LONGITUDE": -75.194307, "COUNTY": "MONROE", "FACILITY_N": "DONGY HOMECARE AND RESIDENTIAL SERVICES", "STREET": "18 NORTH 7TH STREET 2ND FLOOR", "FACILITY_I": "06870501", "LATITUDE": 40.985879, "TELEPHONE_": "(570)269-2423", "ZIP_CODE": 18360.0}},{"geometry": {"type": "Point", "coordinates": [-75.13088399999998, 40.32907600000004]}, "type": "Feature", "id": 204, "properties": {"CITY": "DOYLESTOWN", "OBJECTID": 205, "GEOCODING_": "01", "LONGITUDE": -75.130884, "COUNTY": "BUCKS", "FACILITY_N": "DOYLESTOWN HOSPITAL VISITING NURSE/HCD", "STREET": "4259 WEST SWAMP ROAD SUITE 204", "FACILITY_I": "708305", "LATITUDE": 40.329076, "TELEPHONE_": "(215)345-2202", "ZIP_CODE": 18902.0}},{"geometry": {"type": "Point", "coordinates": [-74.97607299999999, 40.059127000000046]}, "type": "Feature", "id": 205, "properties": {"CITY": "BENSALEM", "OBJECTID": 206, "GEOCODING_": "01", "LONGITUDE": -74.976073, "COUNTY": "BUCKS", "FACILITY_N": "DYNAMIC HOME HEALTH CARE INC.", "STREET": "550 STATE ROAD SUITE 113", "FACILITY_I": "03750501", "LATITUDE": 40.059127, "TELEPHONE_": "(215)244-4466", "ZIP_CODE": 19020.0}},{"geometry": {"type": "Point", "coordinates": [-75.38239999999996, 40.669205000000034]}, "type": "Feature", "id": 206, "properties": {"CITY": "BETHLEHEM", "OBJECTID": 207, "GEOCODING_": "01", "LONGITUDE": -75.3824, "COUNTY": "LEHIGH", "FACILITY_N": "EASTON HOME HEALTH SERVICES", "STREET": "3893 ADLER PLACE SUITE 170", "FACILITY_I": "701405", "LATITUDE": 40.669205, "TELEPHONE_": "(610)438-1656", "ZIP_CODE": 18017.0}},{"geometry": {"type": "Point", "coordinates": [-75.25952599999994, 39.91820400000006]}, "type": "Feature", "id": 207, "properties": {"CITY": "DARBY", "OBJECTID": 208, "GEOCODING_": "01", "LONGITUDE": -75.259526, "COUNTY": "DELAWARE", "FACILITY_N": "EDMACY HOME CARE, INC.", "STREET": "824 MAIN STREET", "FACILITY_I": "07180501", "LATITUDE": 39.918204, "TELEPHONE_": "(484)494-6070", "ZIP_CODE": 19023.0}},{"geometry": {"type": "Point", "coordinates": [-75.13409899999994, 40.06045500000005]}, "type": "Feature", "id": 208, "properties": {"CITY": "ELKINS PARK", "OBJECTID": 209, "GEOCODING_": "01", "LONGITUDE": -75.134099, "COUNTY": "MONTGOMERY", "FACILITY_N": "EDNA'S CARE, LLC", "STREET": "1135 W. CHELTENHAM AVENUE", "FACILITY_I": "07860501", "LATITUDE": 40.060455, "TELEPHONE_": "(215)277-5526", "ZIP_CODE": 19027.0}},{"geometry": {"type": "Point", "coordinates": [-75.29936299999997, 40.128678000000036]}, "type": "Feature", "id": 209, "properties": {"CITY": "PLYMOUTH MEETING", "OBJECTID": 210, "GEOCODING_": "01", "LONGITUDE": -75.299363, "COUNTY": "MONTGOMERY", "FACILITY_N": "EFFRAIM HOME CARE AGENCY, LLC", "STREET": "1000 GERMANTOWN PIKE SUITE B1", "FACILITY_I": "06980501", "LATITUDE": 40.128678, "TELEPHONE_": "(484)270-8725", "ZIP_CODE": 19462.0}},{"geometry": {"type": "Point", "coordinates": [-75.29599099999996, 39.92969700000003]}, "type": "Feature", "id": 210, "properties": {"CITY": "CLIFTON HEIGHTS", "OBJECTID": 211, "GEOCODING_": "01", "LONGITUDE": -75.295991, "COUNTY": "DELAWARE", "FACILITY_N": "EHOMECARE", "STREET": "59 EAST BALTIMORE AVENUE", "FACILITY_I": "06100501", "LATITUDE": 39.929697, "TELEPHONE_": "(215)858-7685", "ZIP_CODE": 19018.0}},{"geometry": {"type": "Point", "coordinates": [-75.33642699999996, 40.12370100000004]}, "type": "Feature", "id": 211, "properties": {"CITY": "NORRISTOWN", "OBJECTID": 212, "GEOCODING_": "01", "LONGITUDE": -75.336427, "COUNTY": "MONTGOMERY", "FACILITY_N": "EINSTEIN MONTGOMERY HOME HEALTH", "STREET": "1330  POWELL STREET SUITE 100", "FACILITY_I": "743605", "LATITUDE": 40.123701, "TELEPHONE_": "(610)272-1080", "ZIP_CODE": 19401.0}},{"geometry": {"type": "Point", "coordinates": [-80.21025999999995, 41.62115600000004]}, "type": "Feature", "id": 212, "properties": {"CITY": "MEADVILLE", "OBJECTID": 213, "GEOCODING_": "01", "LONGITUDE": -80.21026, "COUNTY": "CRAWFORD", "FACILITY_N": "EKIDZ CARE", "STREET": "16269 CONNEAUT LAKE ROAD SUITE 104", "FACILITY_I": "04240501", "LATITUDE": 41.621156, "TELEPHONE_": "(814)807-1162", "ZIP_CODE": 16335.0}},{"geometry": {"type": "Point", "coordinates": [-80.17517199999998, 40.532076000000075]}, "type": "Feature", "id": 213, "properties": {"CITY": "SEWICKLEY", "OBJECTID": 214, "GEOCODING_": "01", "LONGITUDE": -80.175172, "COUNTY": "ALLEGHENY", "FACILITY_N": "EKIDZCARE", "STREET": "1106 OHIO RIVER BLVD SUITE 602", "FACILITY_I": "03910501", "LATITUDE": 40.532076, "TELEPHONE_": "(412)324-1025", "ZIP_CODE": 15143.0}},{"geometry": {"type": "Point", "coordinates": [-77.82916299999994, 40.815477000000044]}, "type": "Feature", "id": 214, "properties": {"CITY": "STATE COLLEGE", "OBJECTID": 215, "GEOCODING_": "01", "LONGITUDE": -77.829163, "COUNTY": "CENTRE", "FACILITY_N": "EKIDZCARE", "STREET": "270 WALKER DRIVE SUITE 205", "FACILITY_I": "06130501", "LATITUDE": 40.815477, "TELEPHONE_": "(814)308-9510", "ZIP_CODE": 16803.0}},{"geometry": {"type": "Point", "coordinates": [-76.25058299999995, 40.05331700000005]}, "type": "Feature", "id": 215, "properties": {"CITY": "LANCASTER", "OBJECTID": 216, "GEOCODING_": "01", "LONGITUDE": -76.250583, "COUNTY": "LANCASTER", "FACILITY_N": "EKIDZCARE", "STREET": "1860 CHARTER LANE SUITE 104", "FACILITY_I": "82330501", "LATITUDE": 40.053317, "TELEPHONE_": "(717)405-3482", "ZIP_CODE": 17601.0}},{"geometry": {"type": "Point", "coordinates": [-75.66783599999997, 40.83982800000007]}, "type": "Feature", "id": 216, "properties": {"CITY": "LEHIGHTON", "OBJECTID": 217, "GEOCODING_": "01", "LONGITUDE": -75.667836, "COUNTY": "CARBON", "FACILITY_N": "EKIDZCARE", "STREET": "59 HARRITY ROAD", "FACILITY_I": "06020501", "LATITUDE": 40.839828, "TELEPHONE_": "(484)408-0290", "ZIP_CODE": 18235.0}},{"geometry": {"type": "Point", "coordinates": [-75.06921999999997, 40.047993000000076]}, "type": "Feature", "id": 217, "properties": {"CITY": "PHILADELPHIA", "OBJECTID": 218, "GEOCODING_": "01", "LONGITUDE": -75.06922, "COUNTY": "PHILADELPHIA", "FACILITY_N": "ELDACARE HOME HEALTH SERVICES INC.", "STREET": "7106 CASTOR AVENUE", "FACILITY_I": "08330501", "LATITUDE": 40.047993, "TELEPHONE_": "(267)242-4795", "ZIP_CODE": 19149.0}},{"geometry": {"type": "Point", "coordinates": [-75.13713699999994, 40.09464800000006]}, "type": "Feature", "id": 218, "properties": {"CITY": "JENKINTOWN", "OBJECTID": 219, "GEOCODING_": "01", "LONGITUDE": -75.137137, "COUNTY": "MONTGOMERY", "FACILITY_N": "ELITE HOME HEALTH CARE INC.", "STREET": "100 WEST AVENUE SUITE 910S", "FACILITY_I": "80370501", "LATITUDE": 40.094648, "TELEPHONE_": "(215)245-2131", "ZIP_CODE": 19046.0}},{"geometry": {"type": "Point", "coordinates": [-76.81434299999995, 40.33742500000005]}, "type": "Feature", "id": 219, "properties": {"CITY": "HARRISBURG", "OBJECTID": 220, "GEOCODING_": "01", "LONGITUDE": -76.814343, "COUNTY": "DAUPHIN", "FACILITY_N": "ELITE STAFFING SERVICES, INC.", "STREET": "4800 LINGLESTOWN RD, SUITE 200", "FACILITY_I": "77510501", "LATITUDE": 40.337425, "TELEPHONE_": "(717)540-3530", "ZIP_CODE": 17112.0}},{"geometry": {"type": "Point", "coordinates": [-80.08117299999998, 40.410956000000056]}, "type": "Feature", "id": 220, "properties": {"CITY": "CARNEGIE", "OBJECTID": 221, "GEOCODING_": "01", "LONGITUDE": -80.081173, "COUNTY": "ALLEGHENY", "FACILITY_N": "EMERALD HOME HEALTH", "STREET": "510 EAST MAIN STREET", "FACILITY_I": "02220501", "LATITUDE": 40.410956, "TELEPHONE_": "(412)429-5880", "ZIP_CODE": 15106.0}},{"geometry": {"type": "Point", "coordinates": [-75.41182699999996, 40.10125800000003]}, "type": "Feature", "id": 221, "properties": {"CITY": "KING OF PRUSSIA", "OBJECTID": 222, "GEOCODING_": "01", "LONGITUDE": -75.411827, "COUNTY": "MONTGOMERY", "FACILITY_N": "EMERGENT FIRST CARE, LLC", "STREET": "750 MOORE ROAD UNIT 316", "FACILITY_I": "07770501", "LATITUDE": 40.101258, "TELEPHONE_": "(267)398-8599", "ZIP_CODE": 19406.0}},{"geometry": {"type": "Point", "coordinates": [-76.74605546499998, 39.99836198700007]}, "type": "Feature", "id": 222, "properties": {"CITY": "YORK", "OBJECTID": 223, "GEOCODING_": "01", "LONGITUDE": -76.7460554649, "COUNTY": "YORK", "FACILITY_N": "ENHABIT HOME HEALTH", "STREET": "2315 N SUSQUEHANNA TRAIL B&C", "FACILITY_I": "02520501", "LATITUDE": 39.9983619873, "TELEPHONE_": "(717)767-8772", "ZIP_CODE": 17404.0}},{"geometry": {"type": "Point", "coordinates": [-79.81201599999997, 40.42878900000005]}, "type": "Feature", "id": 223, "properties": {"CITY": "PITTSBURGH", "OBJECTID": 224, "GEOCODING_": "01", "LONGITUDE": -79.812016, "COUNTY": "ALLEGHENY", "FACILITY_N": "ENHABIT HOME HEALTH", "STREET": "300 PENN CENTER BLVD SUITE 303", "FACILITY_I": "02270501", "LATITUDE": 40.428789, "TELEPHONE_": "(412)826-2799", "ZIP_CODE": 15235.0}},{"geometry": {"type": "Point", "coordinates": [-75.97387499999996, 40.34506200000004]}, "type": "Feature", "id": 224, "properties": {"CITY": "WYOMISSING", "OBJECTID": 225, "GEOCODING_": "01", "LONGITUDE": -75.973875, "COUNTY": "BERKS", "FACILITY_N": "ENHABIT HOME HEALTH", "STREET": "1100 BERKSHIRE BLVD SUITE 210", "FACILITY_I": "02840501", "LATITUDE": 40.345062, "TELEPHONE_": "(610)796-6473", "ZIP_CODE": 19610.0}},{"geometry": {"type": "Point", "coordinates": [-75.88840599999997, 41.26277200000004]}, "type": "Feature", "id": 225, "properties": {"CITY": "KINGSTON", "OBJECTID": 226, "GEOCODING_": "01", "LONGITUDE": -75.888406, "COUNTY": "LUZERNE", "FACILITY_N": "ERWINE HOME HEALTH AND HOSPICE INC", "STREET": "270 PIERCE STREET, SUITE 101", "FACILITY_I": "02260501", "LATITUDE": 41.262772, "TELEPHONE_": "(570)288-1013", "ZIP_CODE": 18704.0}},{"geometry": {"type": "Point", "coordinates": [-75.00163199999997, 40.15414700000008]}, "type": "Feature", "id": 226, "properties": {"CITY": "FEASTERVILLE", "OBJECTID": 227, "GEOCODING_": "01", "LONGITUDE": -75.001632, "COUNTY": "BUCKS", "FACILITY_N": "CARING", "STREET": "1200 BUSTLETON PIKE, SUITE 16 A-1", "FACILITY_I": "07380501", "LATITUDE": 40.154147, "TELEPHONE_": "(267)538-0341", "ZIP_CODE": 19053.0}},{"geometry": {"type": "Point", "coordinates": [-75.00327399999998, 40.14901800000007]}, "type": "Feature", "id": 227, "properties": {"CITY": "FEASTERVILLE TREVOSE", "OBJECTID": 228, "GEOCODING_": "01", "LONGITUDE": -75.003274, "COUNTY": "BUCKS", "FACILITY_N": "CARING FAMILY HOME CARE LLC", "STREET": "826 BUSTLETON PIKE 108", "FACILITY_I": "06280501", "LATITUDE": 40.149018, "TELEPHONE_": "(844)818-0039", "ZIP_CODE": 19053.0}},{"geometry": {"type": "Point", "coordinates": [-75.12673399999994, 39.971606000000065]}, "type": "Feature", "id": 228, "properties": {"CITY": "PHILADELPHIA", "OBJECTID": 229, "GEOCODING_": "01", "LONGITUDE": -75.126734, "COUNTY": "PHILADELPHIA", "FACILITY_N": "CARING HANDS PERSONAL HOMES AGENCY INC.", "STREET": "625 E. GIRARD AVENUE", "FACILITY_I": "06650501", "LATITUDE": 39.971606, "TELEPHONE_": "(267)439-0966", "ZIP_CODE": 19122.0}},{"geometry": {"type": "Point", "coordinates": [-75.27062899999999, 39.91469600000005]}, "type": "Feature", "id": 229, "properties": {"CITY": "COLLINGDALE", "OBJECTID": 230, "GEOCODING_": "01", "LONGITUDE": -75.270629, "COUNTY": "DELAWARE", "FACILITY_N": "CARING HEARTS HEALTH CARE SERVICES, LLC.", "STREET": "400 MACDADE BLVD", "FACILITY_I": "06800501", "LATITUDE": 39.914696, "TELEPHONE_": "(610)200-5600", "ZIP_CODE": 19023.0}},{"geometry": {"type": "Point", "coordinates": [-75.95181999999994, 40.31888500000008]}, "type": "Feature", "id": 230, "properties": {"CITY": "READING", "OBJECTID": 231, "GEOCODING_": "01", "LONGITUDE": -75.95182, "COUNTY": "BERKS", "FACILITY_N": "CARING MATTERS HOME CARE 006", "STREET": "530 KENHORST BOULEVARD", "FACILITY_I": "07450501", "LATITUDE": 40.318885, "TELEPHONE_": "(610)401-0634", "ZIP_CODE": 19611.0}},{"geometry": {"type": "Point", "coordinates": [-76.09806799999996, 40.674938000000054]}, "type": "Feature", "id": 231, "properties": {"CITY": "ORWIGSBURG", "OBJECTID": 232, "GEOCODING_": "01", "LONGITUDE": -76.098068, "COUNTY": "SCHUYLKILL", "FACILITY_N": "CARING MATTERS HOME CARE 034", "STREET": "1253 #3 CENTRE TURNPIKE", "FACILITY_I": "07730501", "LATITUDE": 40.674938, "TELEPHONE_": "(570)968-2165", "ZIP_CODE": 17961.0}},{"geometry": {"type": "Point", "coordinates": [-79.76106099999998, 39.92284300000006]}, "type": "Feature", "id": 232, "properties": {"CITY": "UNIONTOWN", "OBJECTID": 233, "GEOCODING_": "01", "LONGITUDE": -79.761061, "COUNTY": "FAYETTE", "FACILITY_N": "CARTER HEALTHCARE", "STREET": "7829 NATIONAL PIKE SUITE 2", "FACILITY_I": "01750500", "LATITUDE": 39.922843, "TELEPHONE_": "(724)863-5503", "ZIP_CODE": 15401.0}},{"geometry": {"type": "Point", "coordinates": [-75.06537099999997, 40.052080000000046]}, "type": "Feature", "id": 233, "properties": {"CITY": "PHILADELPHIA", "OBJECTID": 234, "GEOCODING_": "01", "LONGITUDE": -75.065371, "COUNTY": "PHILADELPHIA", "FACILITY_N": "CAS HOME HEALTH CARE INC.", "STREET": "7308 CASTOR AVE", "FACILITY_I": "02330501", "LATITUDE": 40.05208, "TELEPHONE_": "(215)831-8008", "ZIP_CODE": 19152.0}},{"geometry": {"type": "Point", "coordinates": [-75.14087999999998, 40.034620000000075]},